City_ID,City,Lat,Lng,Max Temp,Humidity,Cloudiness,Wind Speed,Country,Date
0,puerto natales,-51.7236,-72.4875,4.82,69,10,3.59,CL,1694810684
1,adamstown,-25.066,-130.1015,18.04,82,100,12.13,PN,1694810685
2,swakopmund,-22.6833,14.5333,13.47,81,0,5.04,NA,1694810719
3,hasaki,35.7333,140.8333,25.22,89,100,1.53,JP,1694810691
4,alofi,-19.0595,-169.9187,23.94,64,75,5.14,NU,1694810685
5,hithadhoo,-0.6,73.0833,28.17,76,14,5.82,MV,1694810707
6,ushuaia,-54.8,-68.3,2.81,87,75,8.23,AR,1694810693
7,grytviken,-54.2811,-36.5092,0.27,98,100,3.98,GS,1694810683
8,fale old settlement,-9.3852,-171.2468,28.31,74,19,5.66,TK,1694810697
9,saint-philippe,-21.3585,55.7679,18.77,77,36,4.57,RE,1694810719
10,nuuk,64.1835,-51.7216,3.34,100,75,3.6,GL,1694810699
11,lihue,21.9789,-159.3672,30.58,68,20,5.14,US,1694810709
12,port-aux-francais,-49.35,70.2167,5.89,91,100,20.08,TF,1694810683
13,stornoway,58.2093,-6.3865,8.38,79,40,1.54,GB,1694810720
14,anar darah,32.7587,61.654,21.59,28,0,5.18,AF,1694810720
15,xining,36.6167,101.7667,9.75,81,0,1.34,CN,1694810720
16,nikolayevsk-on-amure,53.1406,140.73,7.22,88,58,4.67,RU,1694810720
17,puerto ayora,-0.7393,-90.3518,27.98,83,48,4.02,EC,1694810691
18,saipan,15.1355,145.701,27.39,94,20,3.6,MP,1694810693
19,la'ie,21.6477,-157.9253,29.98,73,7,2.68,US,1694810720
20,yigo village,13.5361,144.8886,26.62,91,75,4.12,GU,1694810720
21,albany,42.6001,-73.9662,19.89,57,100,2.24,US,1694810683
22,hilo,19.7297,-155.09,31.27,66,0,2.57,US,1694810721
23,al khums,32.6486,14.2619,25.53,60,0,6.0,LY,1694810721
24,al jawf,29.5,38.75,27.43,28,3,3.79,SA,1694810721
25,bethel,41.3712,-73.414,21.12,67,0,5.14,US,1694810686
26,kirakira,-10.4544,161.9205,25.5,83,97,3.76,SB,1694810721
27,bredasdorp,-34.5322,20.0403,10.43,66,60,9.39,ZA,1694810686
28,ilulissat,69.2167,-51.1,4.01,60,20,2.57,GL,1694810692
29,qaqortoq,60.7167,-46.0333,7.54,95,100,3.28,GL,1694810696
30,mahajanga,-15.7167,46.3167,25.01,73,40,2.06,MG,1694810721
31,lethem,3.3803,-59.7968,32.1,45,90,2.35,GY,1694810722
32,puerto santa,-8.9906,-78.6456,20.47,76,22,4.85,PE,1694810722
33,yermentau,51.6214,73.1069,11.78,76,79,1.26,KZ,1694810479
34,makaha,21.4694,-158.2175,29.95,61,40,2.57,US,1694810722
35,port mathurin,-19.6833,63.4167,22.68,76,75,6.52,MU,1694810694
36,i-n-salah,27.1935,2.4607,34.99,11,5,6.03,DZ,1694810722
37,melfort,52.8667,-104.6177,15.07,67,76,3.09,CA,1694810722
38,east london,-33.0153,27.9116,15.46,66,100,9.72,ZA,1694810688
39,brewer,44.7967,-68.7614,19.18,68,100,8.23,US,1694810722
40,waitangi,-43.9535,-176.5597,9.9,73,100,3.58,NZ,1694810684
41,margaret river,-33.95,115.0667,14.19,90,100,2.91,AU,1694810703
42,angaur state,6.906,134.13,26.76,83,100,5.88,PW,1694810723
43,martuk,50.7475,56.5056,14.91,74,99,2.35,KZ,1694810723
44,ondjiva,-17.0667,15.7333,28.02,14,5,1.54,AO,1694810723
45,muang phonsavan,19.45,103.2167,18.92,99,100,0.9,LA,1694810723
46,lima,-12.0432,-77.0282,22.17,72,100,3.09,PE,1694810690
47,revda,56.801,59.9303,9.95,88,7,0.54,RU,1694810723
48,edinburgh of the seven seas,-37.0676,-12.3116,14.34,94,66,10.32,SH,1694810686
49,magadan,59.5667,150.8,1.41,78,15,2.29,RU,1694810723
50,monticello,45.3055,-93.7941,24.72,58,75,3.09,US,1694810534
51,buchanan,5.8808,-10.0467,24.88,90,89,3.74,LR,1694810723
52,fuerte olimpo,-21.0415,-57.8738,31.92,26,0,1.7,PY,1694810724
53,aksu,41.1231,80.2644,20.67,35,30,1.46,CN,1694810724
54,olonkinbyen,70.9221,-8.7187,3.31,77,8,4.88,SJ,1694810688
55,san pedro pochutla,15.7333,-96.4667,31.51,66,81,1.7,MX,1694810724
56,tiksi,71.6872,128.8694,-0.21,89,97,4.32,RU,1694810692
57,puerto baquerizo moreno,-0.9,-89.6,27.55,61,75,6.17,EC,1694810724
58,udachny,66.4167,112.4,1.36,92,44,8.11,RU,1694810684
59,humaita,-7.5061,-63.0208,37.83,25,76,1.07,BR,1694810724
60,hanceville,34.0607,-86.7675,30.26,79,28,2.71,US,1694810724
61,nouadhibou,20.931,-17.0347,22.99,73,100,9.26,MR,1694810699
62,tazovsky,67.4667,78.7,11.02,87,100,4.56,RU,1694810697
63,iqaluit,63.7506,-68.5145,1.85,80,75,9.26,CA,1694810693
64,hermanus,-34.4187,19.2345,12.11,67,63,12.2,ZA,1694810692
65,howard springs,-12.497,131.047,22.95,66,39,3.17,AU,1694810697
66,dalandzadgad,43.5708,104.425,13.45,45,100,3.44,MN,1694810725
67,charters towers,-20.1,146.2667,14.61,75,0,2.18,AU,1694810725
68,piti village,13.4626,144.6933,27.49,93,40,2.57,GU,1694810725
69,tofol,5.3248,163.0078,28.76,73,78,2.63,FM,1694810686
70,susuman,62.7833,148.1667,2.8,73,44,1.26,RU,1694810696
71,awjilah,29.1081,21.2869,26.12,25,0,3.26,LY,1694810689
72,papatowai,-46.5619,169.4708,12.26,41,100,5.82,NZ,1694810687
73,alice springs,-23.7,133.8833,8.75,37,0,3.09,AU,1694810522
74,keflavik,64.0049,-22.5624,8.95,87,75,4.12,IS,1694810701
75,egilsstadir,65.2653,-14.3948,6.95,76,0,2.57,IS,1694810725
76,bamboo flat,11.7,92.7167,25.05,94,100,4.63,IN,1694810725
77,labrador city,52.9463,-66.9114,16.95,45,40,3.6,CA,1694810683
78,pisco,-13.7,-76.2167,21.03,68,20,2.57,PE,1694810726
79,talnakh,69.4865,88.3972,3.45,82,100,2.5,RU,1694810699
80,kingscliff,-28.2667,153.5667,13.86,100,13,1.54,AU,1694810726
81,maridi,4.9158,29.4742,20.05,95,41,1.04,SS,1694810726
82,flying fish cove,-10.4217,105.6791,23.82,88,100,6.69,CX,1694810698
83,walvis bay,-22.9575,14.5053,13.53,76,0,4.12,NA,1694810726
84,coahuayana de hidalgo,18.7,-103.6583,32.53,64,78,3.1,MX,1694810726
85,porto novo,6.4965,2.6036,26.9,91,100,3.28,BJ,1694810726
86,zambezi,-13.5432,23.1047,21.23,28,0,2.58,ZM,1694810726
87,yellowknife,62.456,-114.3525,16.34,72,40,9.26,CA,1694810687
88,salor,41.3722,69.3817,14.4,58,0,3.09,UZ,1694810727
89,stanley,54.868,-1.6985,13.77,94,100,4.63,GB,1694810611
90,fortuna,40.5982,-124.1573,19.51,83,40,5.14,US,1694810727
91,neiafu,-18.65,-173.9833,25.38,78,40,5.66,TO,1694810727
92,khuzdar,27.7384,66.6434,26.22,55,7,1.16,PK,1694810727
93,vorgashor,67.5833,63.95,7.18,92,98,4.9,RU,1694810695
94,sisimiut,66.9395,-53.6735,3.53,70,93,2.4,GL,1694810727
95,fort st. john,56.2499,-120.8529,24.94,20,40,5.66,CA,1694810727
96,blackmans bay,-43.0167,147.3167,10.29,89,99,3.28,AU,1694810688
97,whitehorse,60.7161,-135.0538,11.72,53,75,6.17,CA,1694810699
98,mawlamyinegyunn,16.3833,95.2667,24.72,95,99,3.21,MM,1694810727
99,jiangyou,31.7667,104.7167,20.97,86,10,1.81,CN,1694810727
100,hawaiian paradise park,19.5933,-154.9731,28.91,72,0,2.57,US,1694810687
101,kokopo,-4.352,152.2633,25.1,75,90,8.35,PG,1694810683
102,nemuro,43.3236,145.575,17.22,93,100,6.31,JP,1694810728
103,mogadishu,2.0371,45.3438,25.1,85,100,6.69,SO,1694810728
104,mount gambier,-37.8333,140.7667,10.51,84,0,3.78,AU,1694810728
105,thompson,55.7435,-97.8558,10.09,81,100,6.17,CA,1694810693
106,twon-brass,4.3151,6.2418,25.61,87,100,5.67,NG,1694810728
107,berbera,10.4396,45.0143,32.04,57,86,1.92,SO,1694810728
108,emerald,-23.5333,148.1667,14.91,70,0,3.06,AU,1694810502
109,isafjordur,66.0755,-23.124,7.7,83,88,2.08,IS,1694810683
110,robore,-18.3333,-59.75,31.05,55,0,0.0,BO,1694810728
111,mata-utu,-13.2816,-176.1745,27.69,78,99,7.24,WF,1694810729
112,sinabang,2.4803,96.3801,25.3,88,100,1.77,ID,1694810706
113,portrush,55.1959,-6.6493,13.05,78,100,1.34,GB,1694810729
114,helena valley southeast,46.6153,-111.9216,27.34,37,0,4.92,US,1694810729
115,dampit,-8.2116,112.7493,19.24,93,47,2.06,ID,1694810729
116,ambodifotatra,-16.9833,49.85,23.21,76,26,3.45,MG,1694810729
117,thinadhoo,0.5333,72.9333,28.21,75,23,5.25,MV,1694810729
118,luau,-10.7073,22.2247,23.87,27,22,1.79,AO,1694810729
119,sabha,27.0377,14.4283,26.9,17,0,4.52,LY,1694810729
120,puerto deseado,-47.7503,-65.8938,5.47,67,97,2.38,AR,1694810488
121,hadibu,12.65,54.0333,26.35,82,77,7.07,YE,1694810729
122,jimo,36.3897,120.4622,17.88,100,56,1.0,CN,1694810730
123,fort mcmurray,56.7268,-111.381,23.77,28,0,4.63,CA,1694810599
124,birao,10.2849,22.7882,22.08,96,100,1.15,CF,1694810730
125,bilibino,68.0546,166.4372,2.12,97,100,0.24,RU,1694810683
126,lompoc,34.6391,-120.4579,26.68,74,100,2.06,US,1694810705
127,newcastle,-32.9272,151.7765,17.77,58,0,2.24,AU,1694810730
128,klyuchi,52.2667,79.1667,13.59,83,99,2.15,RU,1694810700
129,habiganj,24.3833,91.4167,25.33,94,60,1.64,BD,1694810730
130,ust'-ilimsk,58.0006,102.6619,6.91,78,7,0.24,RU,1694810730
131,howrah,22.5892,88.3103,28.0,94,40,1.54,IN,1694810694
132,lazaro cardenas,17.9583,-102.2,30.93,70,100,3.28,MX,1694810730
133,tangalle,6.024,80.7911,24.87,90,63,2.68,LK,1694810730
134,port saint john's,-31.6229,29.5448,18.02,75,39,8.08,ZA,1694810710
135,bairnsdale,-37.8333,147.6167,11.45,69,0,1.82,AU,1694810731
136,carnarvon,-24.8667,113.6333,18.15,83,0,6.99,AU,1694810687
137,banda aceh,5.5577,95.3222,26.37,81,100,2.95,ID,1694810731
138,utrik,11.2278,169.8474,28.75,75,22,6.59,MH,1694810731
139,longyearbyen,78.2186,15.6401,1.91,80,75,6.17,SJ,1694810712
140,invercargill,-46.4,168.35,12.23,49,100,6.26,NZ,1694810457
141,portland,45.5234,-122.6762,33.62,31,0,1.79,US,1694810661
142,ulety,51.3572,112.4849,7.01,52,100,0.8,RU,1694810731
143,burabay,53.0838,70.3138,10.45,84,99,1.36,KZ,1694810731
144,corinto,37.9407,22.9573,22.72,52,100,0.77,GR,1694810731
145,djibo,14.1022,-1.6306,32.38,46,96,4.17,BF,1694810731
146,rongelap,11.1635,166.8941,28.53,77,30,6.83,MH,1694810698
147,ribeira grande,38.5167,-28.7,20.99,68,20,7.2,PT,1694810683
148,west island,-12.1568,96.8225,24.99,78,40,5.14,CC,1694810685
149,kununurra,-15.7667,128.7333,23.99,33,87,3.6,AU,1694810732
150,burang,30.25,81.1667,8.73,84,94,1.81,CN,1694810732
151,uturoa,-16.7333,-151.4333,25.16,80,82,9.31,PF,1694810689
152,cabo san lucas,22.8909,-109.9124,37.01,58,0,5.14,MX,1694810287
153,anadyr,64.75,177.4833,4.28,93,75,2.0,RU,1694810688
154,sakaiminato,35.55,133.2333,24.99,100,75,2.06,JP,1694810732
155,georgetown,5.4112,100.3354,25.96,92,20,1.03,MY,1694810669
156,tiznit,29.5833,-9.5,18.94,80,49,1.97,MA,1694810733
157,sovetskiy,61.3614,63.5842,12.72,68,46,0.89,RU,1694810733
158,san juan,-31.5375,-68.5364,30.87,8,0,3.9,AR,1694810704
159,hakui,36.8833,136.7833,24.03,94,30,1.34,JP,1694810733
160,nova sintra,14.8667,-24.7167,24.06,76,16,4.54,CV,1694810686
161,san andres,12.5847,-81.7006,32.01,70,20,5.14,CO,1694810733
162,hervey bay,-25.2986,152.8535,19.01,69,4,6.2,AU,1694810733
163,boguchany,58.3814,97.4531,7.72,80,42,0.68,RU,1694810712
164,callao,-12.0667,-77.15,23.18,68,100,3.09,PE,1694810733
165,arjona,10.2544,-75.3439,30.59,70,100,1.17,CO,1694810733
166,forster,-32.1667,152.5167,15.2,50,0,2.51,AU,1694810733
167,enewetak,11.3474,162.3373,28.81,76,40,5.51,MH,1694810696
168,luderitz,-26.6481,15.1594,14.77,75,0,7.94,NA,1694810690
169,naze,28.3667,129.4833,26.51,85,80,3.29,JP,1694810699
170,ovalle,-30.5983,-71.2003,29.25,28,0,2.95,CL,1694810312
171,troitsk,54.0979,61.5773,14.68,77,93,1.85,RU,1694810734
172,malango,-2.9627,119.9001,18.7,97,97,0.67,ID,1694810734
173,mount isa,-20.7333,139.5,8.87,66,0,0.0,AU,1694810707
174,haiku-pauwela,20.9219,-156.3051,30.09,62,20,9.26,US,1694810543
175,avarua,-21.2078,-159.775,26.03,73,38,6.69,CK,1694810683
176,ust-nera,64.5667,143.2,1.5,84,43,2.62,RU,1694810707
177,sur,22.5667,59.5289,27.64,75,17,5.58,OM,1694810711
178,ranchettes,41.2186,-104.7903,17.91,40,75,4.12,US,1694810734
179,gafsa,34.425,8.7842,30.12,39,0,3.09,TN,1694810734
180,vila franca do campo,37.7167,-25.4333,21.23,99,100,6.16,PT,1694810698
181,zunyi,27.6867,106.9072,17.34,90,2,0.72,CN,1694810734
182,kodiak,57.79,-152.4072,10.73,100,100,2.57,US,1694810699
183,fisterra,42.9049,-9.2629,18.34,89,100,4.77,ES,1694810735
184,tadine,-21.55,167.8833,20.7,83,94,9.76,NC,1694810735
185,badger,64.8,-147.5333,11.74,83,75,1.54,US,1694810695
186,hamilton,39.1834,-84.5333,26.23,44,0,3.09,US,1694810007
187,dunhua,43.3725,128.2425,12.36,92,17,1.25,CN,1694810735
188,pacific grove,36.6177,-121.9166,21.8,84,75,3.09,US,1694810582
189,daru,-9.0763,143.2092,23.83,65,91,6.49,PG,1694810694
190,tazacorte,28.629,-17.9293,24.54,83,20,5.14,ES,1694810161
191,lebu,-37.6167,-73.65,12.63,97,100,7.6,CL,1694810703
192,horta,38.5333,-28.6333,20.8,72,20,8.23,PT,1694810162
193,mwene-ditu,-7.0,23.45,25.6,49,28,2.1,CD,1694810735
194,jieshi,22.8134,115.8257,25.85,87,90,3.65,CN,1694810735
195,letlhakane,-21.4167,25.5833,22.11,24,0,2.63,BW,1694810736
196,katsuren-haebaru,26.3369,127.8719,29.43,89,40,2.06,JP,1694810736
197,patacamaya,-17.2333,-67.9167,16.65,16,1,0.62,BO,1694810736
198,simpang,-1.2667,104.0833,23.59,87,12,1.39,ID,1694810736
199,inari,68.906,27.0288,2.11,81,97,2.54,FI,1694810736
200,rakops,-21.0167,24.3333,22.35,24,0,2.45,BW,1694810736
201,palikir - national government center,6.9248,158.1611,25.41,94,100,0.0,FM,1694810736
202,cozumel,20.5083,-86.9458,32.04,78,75,3.6,MX,1694810665
203,kara suu,40.7046,72.8667,18.98,52,20,4.0,KG,1694810736
204,quellon,-43.1167,-73.6167,8.69,79,19,6.01,CL,1694810736
205,vorkuta,67.5,64.0,7.89,92,97,4.75,RU,1694810686
206,madang,-5.2246,145.7966,24.88,90,100,1.66,PG,1694810737
207,petropavlovsk-kamchatsky,53.0452,158.6483,4.33,81,75,3.0,RU,1694810690
208,bodo,67.28,14.405,10.02,83,40,4.12,NO,1694810737
209,kupang,-10.1667,123.5833,23.32,78,36,2.57,ID,1694810737
210,balaklava,44.5,33.6,19.65,54,100,1.68,UA,1694810737
211,meulaboh,4.1363,96.1285,24.97,90,100,1.62,ID,1694810737
212,chibougamau,49.9168,-74.3659,18.79,45,0,5.14,CA,1694810737
213,wijk bij duurstede,51.9742,5.3417,18.34,81,100,1.34,NL,1694810737
214,malaunay,49.5271,1.0429,21.31,63,0,4.12,FR,1694810737
215,kailua-kona,19.6406,-155.9956,29.72,76,40,3.6,US,1694810714
216,rio grande,-32.035,-52.0986,23.06,75,10,5.01,BR,1694810628
217,dharur,18.8167,76.1167,21.96,83,100,7.7,IN,1694810738
218,miles city,46.4083,-105.8406,23.54,25,0,3.09,US,1694810738
219,carutapera,-1.195,-46.02,26.95,79,7,5.06,BR,1694810701
220,atafu village,-8.5421,-172.5159,28.33,74,19,5.83,TK,1694810696
221,sungai penuh,-2.0833,101.3833,16.85,89,19,1.55,ID,1694810738
222,moia,41.8101,2.0958,17.2,91,93,0.65,ES,1694810738
223,port elizabeth,-33.918,25.5701,13.39,87,40,13.89,ZA,1694810693
224,weno,7.4515,151.8468,25.97,94,100,1.54,FM,1694810738
225,ingeniero guillermo n. juarez,-23.9,-61.85,32.17,14,1,6.2,AR,1694810738
226,la libertad,-2.2333,-80.9,26.81,74,75,5.14,EC,1694810738
227,tsiombe,-25.3,45.4833,22.28,64,0,1.77,MG,1694810738
228,saldanha,-33.0117,17.9442,12.03,63,94,8.35,ZA,1694810739
229,chiang khong,20.2613,100.4046,21.77,99,100,0.76,TH,1694810739
230,magnanville,48.968,1.6784,20.71,55,21,3.22,FR,1694810739
231,juegang,32.3174,121.1855,24.39,98,100,2.05,CN,1694810739
232,ivanivka,46.7208,34.553,18.38,79,34,3.51,UA,1694810739
233,bikenibeu village,1.3673,173.1241,28.98,79,40,1.03,KI,1694810739
234,vilyuchinsk,52.9306,158.4028,5.15,64,100,2.56,RU,1694810739
235,champerico,14.3,-91.9167,34.3,64,21,2.9,GT,1694810739
236,pemba,-12.974,40.5178,25.39,83,20,2.24,MZ,1694810739
237,illizi,26.4833,8.4667,30.24,13,0,5.2,DZ,1694810740
238,fuglafjordur,62.244,-6.814,6.26,67,95,4.59,FO,1694810740
239,la ronge,55.1001,-105.2842,16.12,72,75,3.6,CA,1694810699
240,jamestown,42.097,-79.2353,21.4,50,0,2.24,US,1694810424
241,pandan,14.0453,124.1694,26.01,87,36,1.33,PH,1694810740
242,smidovich,48.6,133.8167,7.27,84,67,4.63,RU,1694810740
243,lata,40.1629,-8.3327,19.95,88,97,0.95,PT,1694810708
244,port lincoln,-34.7333,135.8667,12.65,59,0,3.71,AU,1694810740
245,prince rupert,54.3161,-130.3201,14.05,77,75,3.09,CA,1694810462
246,mesquite,32.7668,-96.5992,29.5,65,75,4.12,US,1694810470
247,el-tor,28.2364,33.6254,32.08,29,0,5.66,EG,1694810740
248,am timan,11.0297,20.2827,23.5,91,99,1.91,TD,1694810740
249,pemangkat,1.1667,108.9667,25.97,82,96,1.04,ID,1694810741
250,kiunga,-6.1219,141.2906,21.21,90,100,1.26,PG,1694810741
251,reshetikha,56.2189,43.2936,11.85,60,94,1.9,RU,1694810741
252,red deer,52.2668,-113.802,25.27,23,0,7.2,CA,1694810701
253,tippi,7.2,35.45,18.5,98,100,1.04,ET,1694810741
254,penza,53.2007,45.0046,11.52,80,11,1.24,RU,1694810508
255,aroma,15.8167,36.1333,28.88,52,64,6.85,SD,1694810741
256,aasiaat,68.7098,-52.8699,1.65,69,0,5.4,GL,1694810706
257,coquimbo,-29.9533,-71.3436,16.85,82,0,8.23,CL,1694810512
258,aginskoye,51.1,114.53,7.3,58,100,2.35,RU,1694810741
259,la passe,45.5549,-0.8967,23.32,87,100,5.88,FR,1694810741
260,bentiu,9.2333,29.8333,24.11,87,100,1.32,SS,1694810741
261,oranjemund,-28.55,16.4333,14.08,85,28,2.99,NA,1694810742
262,kill devil hills,36.0307,-75.676,24.0,63,75,6.69,US,1694810704
263,st. john's,47.5649,-52.7093,21.27,96,100,6.69,CA,1694810551
264,arkhangel'sk,64.5401,40.5433,6.79,79,100,1.96,RU,1694810697
265,soron,27.8833,78.75,27.75,83,57,3.82,IN,1694810643
266,afaahiti,-17.75,-149.2833,25.93,83,87,8.77,PF,1694810686
267,crane,31.3974,-102.3501,33.25,33,5,2.5,US,1694810684
268,aykhal,66.0,111.5,-1.44,89,81,9.83,RU,1694810697
269,constantia,44.1833,28.65,21.5,66,87,0.37,RO,1694810685
270,amahai,-3.3333,128.9167,24.24,94,100,3.33,ID,1694810742
271,port alfred,-33.5906,26.891,14.54,76,100,3.13,ZA,1694810691
272,brigantine,39.4101,-74.3646,24.46,43,0,7.72,US,1694810742
273,lumberton,34.6182,-79.0086,27.99,36,0,5.14,US,1694810523
274,college,64.8569,-147.8028,11.78,86,75,1.54,US,1694810695
275,belel,7.05,14.4333,17.08,96,100,0.57,CM,1694810743
276,vadso,70.0744,29.7487,8.09,66,0,5.14,NO,1694810692
277,irymple,-34.25,142.1667,11.75,71,0,2.11,AU,1694810743
278,santa cruz,-17.8,-63.1667,30.7,37,0,6.17,BO,1694810743
279,temerluh,3.4506,102.4176,24.99,98,27,0.25,MY,1694810743
280,nchelenge,-9.3451,28.734,25.88,44,53,1.24,ZM,1694810743
281,ta`u,-14.2336,-169.5144,26.74,80,100,9.72,AS,1694810743
282,wanning,18.8003,110.3967,26.42,87,88,0.34,CN,1694810712
283,castel volturno,41.0149,13.9462,24.46,88,0,1.54,IT,1694810743
284,ola,59.5833,151.2833,1.75,77,18,1.68,RU,1694810743
285,paracuru,-3.41,-39.0306,27.28,84,0,6.24,BR,1694810697
286,trairi,-3.2778,-39.2689,25.62,83,0,5.66,BR,1694810743
287,paranhos,-23.8928,-55.4311,20.35,47,0,1.98,BR,1694810744
288,ketchikan,55.3422,-131.6461,12.26,94,100,6.17,US,1694810744
289,nagqu,31.5,92.0,0.08,86,66,2.18,CN,1694810744
290,kutum,14.2,24.6667,24.16,63,41,3.77,SD,1694810744
291,vrnjacka banja,43.6167,20.9,19.57,86,100,0.3,RS,1694810744
292,lensk,60.7253,114.9278,10.99,83,100,3.46,RU,1694810744
293,dongola,19.1667,30.4833,30.99,16,0,5.87,SD,1694810744
294,san patricio,28.017,-97.5169,36.2,46,96,4.35,US,1694810706
295,nar'yan-mar,67.6713,53.087,3.61,89,95,2.92,RU,1694810710
296,labytnangi,66.6572,66.4183,11.83,80,75,3.78,RU,1694810689
297,oguzeli,36.9657,37.5134,18.99,37,0,0.0,TR,1694810745
298,saint-louis du nord,19.9333,-72.7167,29.4,70,82,2.94,HT,1694810745
299,vila velha,-20.3297,-40.2925,19.97,93,100,5.66,BR,1694810745
300,salalah,17.0151,54.0924,28.05,89,75,4.12,OM,1694810745
301,toliara,-23.35,43.6667,22.43,76,0,1.91,MG,1694810745
302,biloela,-24.4167,150.5,13.71,79,0,2.94,AU,1694810745
303,kananga,-5.8958,22.4178,25.28,55,21,1.01,CD,1694810745
304,arraial do cabo,-22.9661,-42.0278,20.92,73,75,2.06,BR,1694810711
305,klaksvik,62.2266,-6.589,6.51,65,96,5.33,FO,1694810745
306,lubang,13.8584,120.124,27.87,75,64,1.98,PH,1694810685
307,ujae,8.9322,165.7642,28.91,75,72,5.41,MH,1694810745
308,geraldton,-28.7667,114.6,11.23,93,0,3.6,AU,1694810700
309,ponta pora,-22.5361,-55.7256,25.95,25,0,2.06,BR,1694810746
310,mount pearl,47.5166,-52.7813,20.81,96,100,6.69,CA,1694810695
311,dudinka,69.4058,86.1778,3.68,92,100,3.04,RU,1694810746
312,namibe,-15.1961,12.1522,17.09,88,25,1.5,AO,1694810746
313,villamontes,-21.25,-63.5,33.69,33,0,5.14,BO,1694810746
314,sao vicente,-23.9631,-46.3919,21.1,83,100,4.63,BR,1694810746
315,nuku'alofa,-21.1333,-175.2,23.19,83,75,5.14,TO,1694810746
316,morehead city,34.7229,-76.726,26.12,50,0,6.69,US,1694810529
317,khandyga,62.6667,135.6,2.73,96,100,4.49,RU,1694810746
318,manacapuru,-3.2997,-60.6206,36.05,27,52,1.21,BR,1694810746
319,remire-montjoly,4.9167,-52.2667,30.02,74,40,6.17,GF,1694810706
320,tura,25.5198,90.2201,23.38,97,18,1.6,IN,1694810747
321,impfondo,1.6381,18.0667,22.59,96,99,0.52,CG,1694810747
322,eydhafushi,5.1033,73.0708,27.65,77,51,3.23,MV,1694810747
323,ciudad del carmen,18.6333,-91.8333,33.02,55,0,3.6,MX,1694810747
324,zakynthos,37.7914,20.8953,23.69,74,100,1.82,GR,1694810747
325,umm kaddadah,13.6017,26.6876,30.9,35,59,3.37,SD,1694810747
326,san rafael,-34.6177,-68.3301,29.6,9,0,3.08,AR,1694810747
327,novo aripuana,-5.1206,-60.3797,39.45,15,27,1.85,BR,1694810747
328,kristiansund,63.1115,7.732,13.36,62,75,4.12,NO,1694810747
329,saudarkrokur,65.7461,-19.6394,6.89,88,98,1.62,IS,1694810704
330,hobyo,5.3505,48.5268,24.97,85,99,10.41,SO,1694810748
331,moussoro,13.6408,16.4901,28.67,60,100,3.13,TD,1694810748
332,whakatane,-37.9585,176.9854,11.05,85,3,1.34,NZ,1694810704
333,dingras,18.1032,120.6967,25.86,94,100,2.06,PH,1694810748
334,schweizer-reneke,-27.1887,25.3293,13.01,13,1,4.08,ZA,1694810748
335,mahina,-17.5065,-149.489,26.87,74,40,1.54,PF,1694810748
336,basco,20.4487,121.9702,28.49,76,38,4.24,PH,1694810748
337,nastola,60.95,25.9333,7.69,86,87,2.22,FI,1694810748
338,suva,-18.1416,178.4415,26.71,83,40,3.6,FJ,1694810632
339,bucerias,20.75,-105.3333,33.88,74,20,4.12,MX,1694810748
340,beidao,34.5686,105.8933,16.75,92,65,1.48,CN,1694810749
341,mil'kovo,55.6078,37.7956,13.73,78,97,3.08,RU,1694810707
342,pyapon,16.2833,95.6833,24.48,95,99,3.62,MM,1694810749
343,rikaze,29.25,88.8833,11.33,53,0,1.56,CN,1694810749
344,tuy hoa,13.0833,109.3,25.06,87,100,3.24,VN,1694810749
345,lively,46.4334,-81.1498,19.51,66,42,4.21,CA,1694810749
346,belyye berega,53.2085,34.6641,11.39,89,54,2.43,RU,1694810749
347,touros,-5.1989,-35.4608,24.95,80,0,6.55,BR,1694810749
348,el bauga,18.262,33.9081,34.76,18,55,6.47,SD,1694810749
349,ulsteinvik,62.3432,5.8487,13.51,76,68,7.15,NO,1694810749
350,tobelo,1.7284,128.0095,25.4,84,95,1.98,ID,1694810749
351,siwa oasis,29.2041,25.5195,27.8,27,0,5.61,EG,1694810750
352,fonte boa,-2.4959,-66.2662,35.68,29,10,1.16,BR,1694810750
353,beira,-19.8436,34.8389,21.05,94,20,2.68,MZ,1694810750
354,natal,-5.795,-35.2094,26.36,78,20,6.17,BR,1694810529
355,mabaruma,8.2,-59.7833,29.77,63,4,3.61,GY,1694810750
356,tot'ma,59.9747,42.7642,11.37,92,94,0.81,RU,1694810750
357,taro,-8.3862,115.28,21.03,96,46,0.41,ID,1694810750
358,al badari,26.9926,31.4155,28.08,27,0,4.16,EG,1694810750
359,contai,21.7786,87.7536,26.99,88,100,2.79,IN,1694810750
360,terrace,54.5163,-128.6035,14.01,100,100,7.72,CA,1694810750
361,kingston,17.997,-76.7936,32.53,83,40,6.17,JM,1694810658
362,pindushi,62.9152,34.58,6.83,85,52,0.58,RU,1694810751
363,gazojak,41.1875,61.4036,17.33,34,43,4.54,TM,1694810751
364,lawrenceville,33.9562,-83.988,24.92,68,75,3.16,US,1694810351
365,usogorsk,63.4106,48.6872,12.36,95,99,0.29,RU,1694810751
366,punta arenas,-53.15,-70.9167,7.06,53,40,6.17,CL,1694810707
367,midoun,33.8081,10.9923,26.92,70,75,4.91,TN,1694810751
368,newman,37.3138,-121.0208,31.7,22,4,1.87,US,1694810712
369,revelstoke,50.9832,-118.2023,20.01,49,0,2.57,CA,1694810709
370,dawei,14.0833,98.2,24.58,97,100,5.51,MM,1694810751
371,severo-yeniseyskiy,60.3725,93.0408,5.89,88,13,0.41,RU,1694810751
372,jamalpur,24.9167,89.9333,26.44,89,0,2.38,BD,1694810751
373,okha,53.5739,142.9478,8.8,91,100,8.31,RU,1694810752
374,tandil,-37.3217,-59.1332,19.82,58,99,4.39,AR,1694810752
375,tongouson,5.0214,120.1328,27.56,76,63,1.18,PH,1694810752
376,bel ombre,-4.6167,55.4167,24.91,88,75,8.75,SC,1694810703
377,buala,-8.145,159.5921,26.31,84,94,3.24,SB,1694810752
378,la jagua de ibirico,9.5623,-73.3341,31.83,68,100,1.23,CO,1694810752
379,baishishan,43.5833,127.5667,13.87,94,0,0.83,CN,1694810752
380,khash,28.2211,61.2158,22.58,21,12,1.8,IR,1694810752
381,port pirie,-33.1833,138.0167,13.05,55,0,1.83,AU,1694810752
382,nasir,15.5894,32.5634,35.84,26,80,3.0,SD,1694810752
383,ladario,-19.0047,-57.6017,29.05,54,0,2.06,BR,1694810752
384,grantsville,40.5999,-112.4644,27.75,32,0,5.14,US,1694810753
385,wailua homesteads,22.0669,-159.378,30.24,67,20,5.14,US,1694810704
386,elko,41.0002,-115.5012,25.64,20,0,3.58,US,1694810753
387,yurimaguas,-5.9,-76.0833,29.09,94,75,3.6,PE,1694810753
388,nizhneangarsk,55.7833,109.55,9.73,70,3,2.79,RU,1694810753
389,tsagan aman,47.5639,46.7218,14.0,49,53,3.15,RU,1694810753
390,gaalkacyo,6.7697,47.4308,25.57,64,100,10.07,SO,1694810753
391,weihai,37.5017,122.1136,22.47,87,100,1.67,CN,1694810753
392,yulin,22.6333,110.15,23.85,96,100,1.78,CN,1694810753
393,jaisalmer,26.9147,70.9181,30.78,53,54,6.81,IN,1694810753
394,brisas de zicatela,15.8369,-97.0419,28.29,57,75,2.57,MX,1694810691
395,benjamin constant,-4.3831,-70.0311,27.03,69,40,2.57,BR,1694810753
396,weirton,40.419,-80.5895,24.49,37,0,1.34,US,1694810564
397,merizo village,13.2658,144.6691,27.31,95,25,6.36,GU,1694810754
398,cromwell,41.5951,-72.6454,21.58,65,0,7.2,US,1694810754
399,alvaraes,-3.2208,-64.8042,33.93,19,38,0.77,BR,1694810754
400,aral,40.5156,81.2636,20.67,30,2,8.29,CN,1694810754
401,rainbow city,33.9548,-86.0419,26.42,87,100,3.09,US,1694810754
402,ankang,32.68,109.0172,19.88,92,84,0.79,CN,1694810754
403,codrington,-38.2667,141.9667,10.4,80,0,6.12,AU,1694810657
404,gebeit,21.0667,36.3167,29.12,34,21,1.37,SD,1694810695
405,san luis de la loma,17.2706,-100.8939,30.06,75,100,2.11,MX,1694810754
406,chonchi,-42.6128,-73.8092,11.73,80,12,3.87,CL,1694810694
407,marion,39.7684,-86.1555,26.34,41,0,4.12,US,1694809941
408,bohlen,51.2,12.3833,18.28,65,4,3.16,DE,1694810755
409,hugo,45.16,-92.9933,22.79,86,75,5.14,US,1694810705
410,humberto de campos,-2.5983,-43.4611,26.89,78,32,3.97,BR,1694810755
411,yangshuo,24.7808,110.4897,22.33,97,43,0.31,CN,1694810755
412,tejen,37.3834,60.5054,20.2,28,3,3.53,TM,1694810755
413,freetown,8.484,-13.2299,25.54,86,100,1.84,SL,1694810690
414,minas de marcona,-15.2119,-75.1103,17.51,60,43,4.37,PE,1694810755
415,tver,56.8619,35.8931,9.1,91,74,2.68,RU,1694810755
416,ghat,24.9647,10.1728,29.56,12,0,2.28,LY,1694810755
417,papao,-17.75,-149.55,26.82,81,52,9.18,PF,1694810756
418,laguna beach,33.5423,-117.7831,27.11,79,100,2.68,US,1694810756
419,trinidad,-14.8333,-64.9,32.99,40,30,2.06,BO,1694810756
420,mulanje,-16.0316,35.5,23.01,48,0,2.37,MW,1694810756
421,madalena,41.2162,-8.3345,19.32,83,100,2.09,PT,1694810756
422,kongoussi,13.3258,-1.5347,28.49,61,93,3.93,BF,1694810756
423,cihuatlan,19.2366,-104.5651,31.82,74,100,5.14,MX,1694810648
424,washim,20.1,77.15,21.51,87,100,7.8,IN,1694810756
425,pemalang,-6.9,109.3667,24.62,77,38,2.12,ID,1694810713
426,harstad,68.799,16.5293,8.23,80,76,2.24,NO,1694810756
427,indramayu,-6.3264,108.32,25.22,73,4,3.95,ID,1694810756
428,salinopolis,-0.6136,-47.3561,27.35,80,41,5.57,BR,1694810757
429,christchurch,-43.5333,172.6333,14.15,89,81,2.06,NZ,1694810486
430,mahibadhoo,3.7833,72.9667,27.93,74,20,3.49,MV,1694810757
431,bichura,50.5881,107.6022,10.24,88,99,1.19,RU,1694810757
432,petatlan,17.5167,-101.2667,28.89,73,100,2.13,MX,1694810757
433,morant bay,17.8815,-76.4093,32.79,69,98,4.53,JM,1694810268
434,djibouti,11.5,42.5,29.37,43,35,2.7,DJ,1694810757
435,dubbo,-32.25,148.6167,8.07,76,0,5.14,AU,1694810757
436,matoury,4.8483,-52.3317,29.98,74,40,6.17,GF,1694810757
437,peace river,56.2501,-117.286,23.17,35,75,3.6,CA,1694810540
438,changtu,42.7788,124.0955,15.82,92,0,2.32,CN,1694810757
439,la gi,10.6667,107.7833,25.27,88,90,3.81,VN,1694810758
440,yerofey pavlovich,53.9667,121.9667,3.45,84,6,0.71,RU,1694810758
441,bikin,46.8161,134.26,13.2,90,98,1.93,RU,1694810758
442,rabigh,22.7986,39.0349,30.56,64,4,2.93,SA,1694810758
443,ouadda,8.0777,22.4007,20.36,88,100,1.25,CF,1694810758
444,pingyi,35.5006,117.6308,17.48,78,0,0.42,CN,1694810758
445,cidreira,-30.1811,-50.2056,14.96,73,0,5.23,BR,1694810689
446,eyl,7.9803,49.8164,25.31,80,90,10.58,SO,1694810695
447,lorengau,-2.0226,147.2712,26.6,84,100,6.07,PG,1694810758
448,high rock,26.6208,-78.2833,32.01,64,5,2.53,BS,1694810758
449,praia da vitoria,38.7333,-27.0667,21.14,64,40,9.0,PT,1694810700
450,merritt island,28.5392,-80.672,32.05,71,40,5.14,US,1694810559
451,viitasaari,63.0667,25.8667,10.18,77,100,4.42,FI,1694810759
452,nago,26.5881,127.9761,29.47,85,53,2.28,JP,1694810759
453,vuktyl,63.8567,57.3094,10.83,80,65,2.58,RU,1694810759
454,saguenay,48.4168,-71.0657,20.46,43,40,3.6,CA,1694810759
455,idiroko,6.6333,2.7333,26.93,94,100,2.71,NG,1694810759
456,akrehamn,59.2667,5.1833,12.22,87,100,5.14,NO,1694810759
457,makawao,20.8569,-156.3131,27.98,63,20,9.26,US,1694810759
458,ancud,-41.8697,-73.8203,9.21,78,85,6.83,CL,1694810701
459,kaitong,44.8135,123.15,14.01,96,65,3.77,CN,1694810759
460,petrovsk,52.3064,45.3917,12.81,73,52,2.27,RU,1694810759
461,olyokminsk,60.3736,120.4264,9.4,85,94,4.96,RU,1694810760
462,mchinji,-13.7984,32.8802,20.44,51,20,2.25,MW,1694810760
463,iskenderun,36.5872,36.1735,24.46,58,0,1.68,TR,1694810760
464,santa terezinha,-29.9002,-50.0904,15.06,75,0,5.04,BR,1694810760
465,veinticinco de mayo,-35.4323,-60.1727,25.55,31,99,5.36,AR,1694810760
466,jianshui,23.6363,102.8264,16.89,97,7,1.54,CN,1694810760
467,mirnyy,62.5353,113.9611,2.91,69,13,0.89,RU,1694810760
468,cartagena,10.3997,-75.5144,30.79,66,20,4.12,CO,1694810639
469,olinda,-8.0089,-34.8553,26.85,69,75,3.6,BR,1694810760
470,guerrero negro,27.9769,-114.0611,24.17,59,0,8.31,MX,1694810760
471,elbistan,38.2059,37.1983,16.52,29,1,1.18,TR,1694810761
472,thunder bay,48.4001,-89.3168,18.99,82,75,2.06,CA,1694810671
473,ivins,37.1686,-113.6794,30.64,25,1,2.24,US,1694810761
474,sawakin,19.1059,37.3321,30.47,68,1,0.77,SD,1694810761
475,ivdel',60.6911,60.4206,10.5,91,46,1.4,RU,1694810761
476,brokopondo,4.75,-55.1667,31.32,55,66,2.24,SR,1694810761
477,puerto aysen,-45.4,-72.7,5.52,95,100,2.18,CL,1694810712
478,colonia,50.9333,6.95,19.42,73,0,2.57,DE,1694810648
479,cannonvale,-20.2833,148.7,20.66,68,1,7.82,AU,1694810761
480,sorong,-0.8833,131.25,24.53,90,100,4.18,ID,1694810761
481,westport,41.1415,-73.3579,22.02,58,0,6.69,US,1694810517
482,mendota,36.7536,-120.3816,32.15,22,2,3.12,US,1694810761
483,myanaung,18.2833,95.3167,24.18,94,84,0.46,MM,1694810762
484,iskateley,67.6803,53.1512,3.57,89,95,2.95,RU,1694810683
485,tolanaro,-25.0319,46.9987,23.04,83,20,11.83,MG,1694810700
486,lawrenceburg,38.0373,-84.8966,26.53,41,0,3.09,US,1694810762
487,kamen'-rybolov,44.7481,132.0403,14.73,94,0,5.05,RU,1694810762
488,poxoreo,-15.8372,-54.3892,32.35,31,100,1.59,BR,1694810762
489,doka,13.5167,35.7667,23.07,83,100,1.83,SD,1694810762
490,hirara,24.8,125.2833,26.92,89,20,2.06,JP,1694810763
491,tabuk,17.4189,121.4443,23.74,97,99,0.27,PH,1694810763
492,yaren,-0.5472,166.916,28.39,73,84,3.4,NR,1694810709
493,huarmey,-10.0681,-78.1522,21.68,70,24,3.7,PE,1694810763
494,ar ruways,24.1103,52.7306,32.61,71,1,6.64,AE,1694810763
495,anandnagar,27.1,83.2833,27.15,82,100,5.03,IN,1694810763
496,agat village,13.3886,144.6585,27.52,93,40,2.57,GU,1694810694
497,panarukan,-7.7018,113.9184,23.45,76,4,1.63,ID,1694810763
498,san antonio de pale,-1.4014,5.6325,24.33,82,51,6.04,GQ,1694810696
499,kidal,18.4411,1.4078,30.23,44,100,3.87,ML,1694810763
500,luganville,-15.5333,167.1667,23.84,75,92,1.95,VU,1694810764
501,broken hill,-31.95,141.4333,15.35,45,0,1.65,AU,1694810687
502,poronaysk,49.2167,143.1167,12.77,83,100,3.38,RU,1694810764
503,rokytne,51.2796,27.214,11.24,92,0,2.3,UA,1694810764
504,makhambet,47.6667,51.5833,16.04,74,37,1.57,KZ,1694810764
505,acarau,-2.8856,-40.12,25.92,83,1,8.72,BR,1694810764
506,plastun,44.7561,136.2939,14.15,69,0,2.68,RU,1694810764
507,punto fijo,11.6956,-70.1996,31.32,62,100,9.97,VE,1694810764
508,calvinia,-31.4707,19.776,6.37,82,100,7.96,ZA,1694810764
509,al bardiyah,31.7561,25.0865,24.66,75,0,5.24,LY,1694810764
510,cockburn town,21.4612,-71.1419,29.0,69,100,2.17,TC,1694810764
511,el alto,-4.2714,-81.2147,24.81,73,59,6.7,PE,1694810765
512,radaur,30.0333,77.15,25.19,90,95,2.35,IN,1694810765
513,faya-largeau,17.9257,19.1043,34.47,18,0,4.2,TD,1694810765
514,sao miguel do araguaia,-13.275,-50.1628,34.88,23,89,2.65,BR,1694810765
515,hamada,34.8833,132.0833,24.01,88,98,2.0,JP,1694810765
516,tongshan,34.1805,117.1571,20.61,83,70,1.55,CN,1694810765
517,antofagasta,-23.65,-70.4,17.6,69,4,2.38,CL,1694810526
518,san jose del guaviare,2.5729,-72.6459,27.97,75,87,0.78,CO,1694810765
519,lepsy,46.235,78.9456,15.08,52,6,1.41,KZ,1694810765
520,oban,56.4127,-5.4706,10.77,81,100,1.83,GB,1694810766
521,arish,31.1316,33.7984,26.17,58,0,2.72,EG,1694810766
522,essaouira,31.5125,-9.77,23.72,73,20,5.14,MA,1694810766
523,motygino,58.1831,94.7592,8.56,89,39,1.37,RU,1694810766
524,sanming,26.2486,117.6186,23.52,97,100,1.44,CN,1694810766
525,happy valley-goose bay,53.3168,-60.3315,13.17,71,75,2.57,CA,1694810690
526,antsiranana,-12.2787,49.2917,22.56,78,23,8.27,MG,1694810766
527,nantucket,41.2835,-70.0995,18.08,81,40,11.83,US,1694810766
528,richards bay,-28.783,32.0377,21.33,63,2,1.8,ZA,1694810445
529,al fqih ben calah,32.5009,-6.6906,24.32,58,41,6.62,MA,1694810766
530,hassi messaoud,31.6804,6.0729,32.74,18,81,3.89,DZ,1694810766
531,carauari,-4.8828,-66.8958,37.51,24,66,2.23,BR,1694810767
532,saint-louis,16.3333,-15.0,33.33,42,1,7.58,SN,1694810767
533,new norfolk,-42.7826,147.0587,10.95,93,99,2.15,AU,1694810767
534,aibak,36.2647,68.0155,18.79,36,0,1.58,AF,1694810767
535,santa vitoria do palmar,-33.5189,-53.3681,15.72,72,46,5.84,BR,1694810767
536,caras,-9.0467,-77.8114,21.67,56,84,3.18,PE,1694810767
537,dryden,49.7833,-92.7503,16.16,67,75,5.14,CA,1694810486
538,worland,44.0169,-107.9554,25.64,29,0,3.09,US,1694810767
539,las tablas,7.7667,-80.2833,26.21,99,100,2.63,PA,1694810768
540,shurugwi,-19.6702,30.0059,17.83,24,0,0.79,ZW,1694810768
541,tarawa,1.419,172.984,29.05,79,40,1.03,KI,1694810768
542,shipunovo,52.1582,82.2173,10.32,88,100,2.01,RU,1694810768
543,hajduszoboszlo,47.45,21.4,18.06,72,94,5.66,HU,1694810768
544,kharan,28.5833,65.4167,29.2,13,3,1.61,PK,1694810650
545,port douglas,-16.4833,145.4667,22.14,67,37,7.98,AU,1694810768
546,rosarito,32.3333,-117.0333,26.07,66,2,5.34,MX,1694810605
547,chinde,26.8418,88.0763,18.08,91,16,1.55,NP,1694810768
548,matadi,-5.8167,13.45,26.03,71,97,3.24,CD,1694810769
549,zheleznogorsk-ilimskiy,56.5768,104.1217,6.16,77,14,0.87,RU,1694810769
550,las heras,-46.5419,-68.9359,9.65,35,100,10.77,AR,1694810769
551,mhamid,29.82,-5.72,32.96,22,12,3.33,MA,1694810769
552,watertown,42.3709,-71.1828,21.01,61,100,7.2,US,1694810704
553,gadzhiyevo,69.2551,33.3362,5.47,72,94,5.33,RU,1694810686
554,babati,-4.2167,35.75,17.41,66,27,1.69,TZ,1694810769
555,xochitlan todos santos,18.7,-97.7833,27.3,35,43,5.18,MX,1694810769
556,sitka,57.0531,-135.33,11.94,82,100,2.06,US,1694810769
557,hemmoor,53.7,9.1167,16.63,81,9,3.58,DE,1694810769
558,charlotte amalie,18.3419,-64.9307,31.48,70,40,4.12,VI,1694810480
559,athagarh,20.5333,85.6167,28.0,94,100,1.16,IN,1694810770
560,el reno,35.5323,-97.955,25.75,60,100,2.57,US,1694810770
561,protaras,35.0125,34.0583,26.1,66,0,0.45,CY,1694810770
562,bengkulu,-3.8004,102.2655,22.2,92,13,1.75,ID,1694810770
563,jaito,30.4667,74.8833,26.32,84,95,3.17,IN,1694810770
564,yomju-up,39.8933,124.5981,19.61,85,100,1.87,KP,1694810770
565,neijiang,29.5835,105.0622,24.69,68,92,1.58,CN,1694810735
