City_ID,City,Lat,Lng,Max Temp,Humidity,Cloudiness,Wind Speed,Country,Date
0,waitangi,-43.9535,-176.5597,12.12,78,2,6.26,NZ,1695073267
1,chonchi,-42.6128,-73.8092,7.29,79,60,1.11,CL,1695073267
2,lihue,21.9789,-159.3672,28.77,68,40,6.69,US,1695073242
3,puerto ayora,-0.7393,-90.3518,27.98,93,77,3.58,EC,1695073267
4,albany,42.6001,-73.9662,17.12,94,100,0.45,US,1695073258
5,villa gesell,-37.2639,-56.973,9.47,74,5,5.08,AR,1695073042
6,bredasdorp,-34.5322,20.0403,9.58,92,58,1.92,ZA,1695073267
7,port-aux-francais,-49.35,70.2167,4.31,83,77,13.76,TF,1695073267
8,khanty-mansiysk,61.0042,69.0019,9.06,93,0,3.13,RU,1695073267
9,invercargill,-46.4,168.35,12.23,67,20,3.58,NZ,1695073267
10,rongelap,11.1635,166.8941,28.24,76,94,5.9,MH,1695073268
11,grytviken,-54.2811,-36.5092,-3.39,82,88,6.09,GS,1695073268
12,hawaiian paradise park,19.5933,-154.9731,27.71,76,100,2.57,US,1695073008
13,susuman,62.7833,148.1667,4.04,57,100,3.06,RU,1695073268
14,olonkinbyen,70.9221,-8.7187,3.81,67,39,8.58,SJ,1695073268
15,howrah,22.5892,88.3103,27.0,89,75,2.06,IN,1695073107
16,iqaluit,63.7506,-68.5145,1.85,69,75,1.54,CA,1695073268
17,bethel,41.3712,-73.414,20.2,87,100,3.19,US,1695073268
18,port alfred,-33.5906,26.891,11.21,89,34,0.89,ZA,1695073268
19,bilibino,68.0546,166.4372,1.51,80,97,0.41,RU,1695073268
20,hamilton,39.1834,-84.5333,24.68,46,75,5.14,US,1695073201
21,el calafate,-50.3408,-72.2768,0.84,67,31,1.26,AR,1695073269
22,limassol,34.675,33.0333,25.1,78,0,1.03,CY,1695073269
23,clarence town,-32.5833,151.7833,25.64,29,0,1.4,AU,1695073269
24,s'arenal,39.5,2.75,24.63,69,20,1.54,ES,1695073269
25,treasure island,27.7692,-82.769,33.39,62,75,5.14,US,1695073269
26,nagqu,31.5,92.0,2.94,95,100,1.58,CN,1695073269
27,sefaatli,39.5043,34.7563,12.38,54,85,3.35,TR,1695073269
28,ushuaia,-54.8,-68.3,2.81,56,75,8.23,AR,1695073007
29,coquimbo,-29.9533,-71.3436,16.85,63,0,5.66,CL,1695073269
30,adamstown,-25.066,-130.1015,18.23,60,56,0.97,PN,1695073269
31,rio preto da eva,-2.6994,-59.6997,32.92,29,54,1.3,BR,1695073270
32,queenstown,-31.8976,26.8753,7.42,71,0,1.13,ZA,1695073052
33,kerikeri,-35.2268,173.9474,16.06,86,13,0.45,NZ,1695073270
34,ribeira grande,38.5167,-28.7,22.1,75,22,2.68,PT,1695073270
35,whitehorse,60.7161,-135.0538,10.57,71,75,5.14,CA,1695073139
36,malindi,-3.2175,40.1191,24.78,87,29,5.97,KE,1695073270
37,edinburgh of the seven seas,-37.0676,-12.3116,12.64,80,70,9.4,SH,1695073270
38,college,64.8569,-147.8028,6.97,86,100,1.54,US,1695073270
39,sydney,-33.8679,151.2073,24.62,53,0,3.09,AU,1695072733
40,praia da vitoria,38.7333,-27.0667,20.98,83,20,1.21,PT,1695073034
41,anadyr,64.75,177.4833,3.28,93,0,2.68,RU,1695073271
42,blackmans bay,-43.0167,147.3167,14.85,61,80,5.02,AU,1695073271
43,cody,44.5263,-109.0565,27.55,18,20,4.63,US,1695073170
44,tuy hoa,13.0833,109.3,24.82,91,99,1.62,VN,1695073271
45,jamestown,42.097,-79.2353,18.03,64,75,4.63,US,1695073251
46,al kharj,24.155,47.3346,34.32,16,98,3.45,SA,1695073271
47,sinabang,2.4803,96.3801,26.44,84,86,1.51,ID,1695073271
48,fale old settlement,-9.3852,-171.2468,28.12,80,47,8.44,TK,1695073271
49,labrador city,52.9463,-66.9114,12.95,71,100,2.06,CA,1695073209
50,port augusta,-32.5,137.7667,17.73,66,94,0.64,AU,1695073271
51,cambridge,43.3601,-80.3127,18.91,65,20,5.14,CA,1695073091
52,mutuali,-14.8706,37.0044,22.48,62,0,3.15,MZ,1695073272
53,yellowknife,62.456,-114.3525,14.67,86,75,6.71,CA,1695073272
54,dakoro,14.5106,6.765,27.55,62,80,7.32,NE,1695073272
55,kone,-21.0595,164.8658,24.43,69,2,2.17,NC,1695073272
56,aasiaat,68.7098,-52.8699,-3.78,81,10,1.93,GL,1695073272
57,zheleznodorozhnyy,55.7503,38.0042,11.87,68,24,1.9,RU,1695073272
58,vorgashor,67.5833,63.95,4.74,86,100,5.37,RU,1695073272
59,casino,-28.8667,153.05,16.98,64,0,1.93,AU,1695073272
60,port mathurin,-19.6833,63.4167,22.96,80,7,9.37,MU,1695073273
61,ancud,-41.8697,-73.8203,6.9,66,70,2.87,CL,1695073273
62,cova figueira,14.8905,-24.2934,23.12,78,24,4.48,CV,1695073273
63,wailua homesteads,22.0669,-159.378,28.44,68,40,6.69,US,1695073273
64,port lincoln,-34.7333,135.8667,13.47,84,20,6.09,AU,1695073273
65,happy valley-goose bay,53.3168,-60.3315,9.17,76,100,2.06,CA,1695073273
66,kingston,17.997,-76.7936,30.53,77,40,1.54,JM,1695073049
67,tremonton,41.7119,-112.1655,29.23,30,84,4.02,US,1695073273
68,reggane,26.7158,0.1714,35.3,8,8,3.59,DZ,1695073273
69,paramonga,-10.6667,-77.8333,19.71,86,54,4.26,PE,1695073274
70,saipan,15.1355,145.701,28.39,83,20,6.17,MP,1695073274
71,portland,45.5234,-122.6762,24.73,42,20,5.66,US,1695072839
72,papatowai,-46.5619,169.4708,11.6,56,22,4.62,NZ,1695073274
73,hasaki,35.7333,140.8333,25.16,81,4,6.58,JP,1695073274
74,hami,42.8,93.45,16.26,26,42,1.71,CN,1695073274
75,margaret river,-33.95,115.0667,14.24,79,100,5.98,AU,1695073152
76,biloela,-24.4167,150.5,18.64,60,0,2.24,AU,1695073274
77,tomislavgrad,43.7181,17.2267,19.89,75,100,1.54,BA,1695073274
78,pyshma,56.9523,63.2513,10.78,80,5,3.49,RU,1695073274
79,kisangani,0.5167,25.2,21.39,90,85,0.82,CD,1695073275
80,toamasina,-18.1667,49.3833,20.0,94,40,1.54,MG,1695073275
81,sorong,-0.8833,131.25,25.65,86,100,5.04,ID,1695073160
82,karratha,-20.7377,116.8463,22.3,53,53,3.48,AU,1695073275
83,smithers,54.7804,-127.1743,14.18,47,75,1.54,CA,1695073275
84,valdez,1.2492,-78.9831,26.55,81,39,5.81,EC,1695073275
85,grand falls-windsor,48.9332,-55.6649,10.84,86,100,0.89,CA,1695073275
86,copala,16.65,-98.9833,30.55,65,17,4.74,MX,1695073275
87,west island,-12.1568,96.8225,24.99,78,75,6.69,CC,1695073276
88,punta arenas,-53.15,-70.9167,4.06,48,75,6.17,CL,1695072914
89,tiksi,71.6872,128.8694,-1.04,86,100,4.65,RU,1695073276
90,vernon,50.2581,-119.2691,20.2,33,58,3.13,CA,1695073020
91,la'ie,21.6477,-157.9253,30.98,73,60,1.79,US,1695073276
92,uturoa,-16.7333,-151.4333,25.03,79,95,9.82,PF,1695073276
93,yerofey pavlovich,53.9667,121.9667,-1.02,76,2,2.01,RU,1695073276
94,ouesso,1.6136,16.0517,21.59,91,91,0.92,CG,1695073276
95,puerto natales,-51.7236,-72.4875,2.44,68,100,1.74,CL,1695073276
96,santiago de cao,-7.9589,-79.2392,21.07,78,55,5.14,PE,1695073277
97,drawsko pomorskie,53.5306,15.8097,22.72,87,100,0.89,PL,1695073277
98,formosa do rio preto,-11.0483,-45.1931,28.92,24,51,2.59,BR,1695073277
99,arraial do cabo,-22.9661,-42.0278,22.98,78,0,8.23,BR,1695073267
100,alofi,-19.0595,-169.9187,24.94,57,75,9.77,NU,1695073277
101,inhambane,-23.865,35.3833,19.53,83,1,3.18,MZ,1695073277
102,tupelo,34.2576,-88.7034,28.9,33,0,3.09,US,1695073149
103,nema,57.5067,50.5011,7.91,90,77,3.78,RU,1695073278
104,camana,-16.6228,-72.7111,19.64,80,45,3.9,PE,1695073278
105,masterton,-40.9597,175.6575,13.27,65,19,5.4,NZ,1695073278
106,hadibu,12.65,54.0333,26.18,79,64,6.94,YE,1695073278
107,lata,40.1629,-8.3327,17.26,90,45,0.67,PT,1695073278
108,sandnessjoen,66.0217,12.6316,12.06,66,0,2.57,NO,1695073278
109,trondheim,63.4305,10.3951,14.95,79,99,2.24,NO,1695073054
110,keflavik,64.0049,-22.5624,8.95,87,40,3.09,IS,1695073278
111,isafjordur,66.0755,-23.124,7.38,96,100,18.61,IS,1695073278
112,udachny,66.4167,112.4,-1.97,79,76,4.46,RU,1695073279
113,port moresby,-9.4431,147.1797,21.68,88,20,2.06,PG,1695073279
114,touros,-5.1989,-35.4608,25.29,81,71,6.73,BR,1695073053
115,avarua,-21.2078,-159.775,23.03,53,75,3.6,CK,1695073279
116,lakshmeshwar,15.1333,75.4667,20.73,95,90,4.71,IN,1695073279
117,hermanus,-34.4187,19.2345,10.45,87,62,2.23,ZA,1695073279
118,itamaraca,-7.7478,-34.8256,26.03,83,24,4.7,BR,1695073279
119,chingirlau,51.095,54.0814,16.54,51,71,0.74,KZ,1695073279
120,riorges,46.0418,4.0497,16.69,80,12,1.72,FR,1695073279
121,kuta,-8.7233,115.1723,23.97,100,75,1.54,ID,1695073280
122,ambon,-3.6954,128.1814,26.04,36,40,2.06,ID,1695073280
123,tadine,-21.55,167.8833,22.0,89,68,8.64,NC,1695073280
124,san ignacio rio muerto,27.4167,-110.2333,37.29,35,0,6.5,MX,1695073280
125,iguaba grande,-22.8392,-42.2289,23.02,83,0,8.23,BR,1695073218
126,vila franca do campo,37.7167,-25.4333,18.82,99,64,1.54,PT,1695073280
127,mayahi,13.9553,7.6712,29.98,47,41,1.59,NE,1695073280
128,tsiombe,-25.3,45.4833,21.41,82,100,5.24,MG,1695073280
129,carnarvon,-24.8667,113.6333,16.34,67,4,8.64,AU,1695073280
130,daniel flores,9.3355,-83.6694,25.04,86,81,0.52,CR,1695073281
131,remire-montjoly,4.9167,-52.2667,30.02,70,0,3.6,GF,1695073210
132,suoyarvi,62.0833,32.35,5.0,96,75,1.82,RU,1695073281
133,utrik,11.2278,169.8474,27.98,78,97,3.94,MH,1695073281
134,nova sintra,14.8667,-24.7167,22.73,76,57,5.38,CV,1695073281
135,sultanah,24.4926,39.5857,36.25,11,0,5.14,SA,1695073281
136,kondoa,-4.9,35.7833,17.7,66,17,3.19,TZ,1695073281
137,puerto cabezas,14.0351,-83.3888,31.98,74,75,4.12,NI,1695073281
138,richards bay,-28.783,32.0377,19.05,75,0,6.58,ZA,1695073237
139,longyearbyen,78.2186,15.6401,-3.09,74,20,1.54,SJ,1695073282
140,xilin hot,43.9667,116.0333,7.61,71,34,2.0,CN,1695073282
141,westport,41.1415,-73.3579,20.99,90,100,0.45,US,1695073282
142,loukhi,66.0764,33.0381,5.97,80,98,3.92,RU,1695073282
143,mata-utu,-13.2816,-176.1745,27.06,82,42,11.56,WF,1695073282
144,badger,64.8,-147.5333,6.93,86,75,1.54,US,1695073282
145,talnakh,69.4865,88.3972,2.34,100,100,2.59,RU,1695073282
146,twon-brass,4.3151,6.2418,26.16,85,70,3.04,NG,1695073283
147,sena madureira,-9.0656,-68.6569,32.97,43,61,1.46,BR,1695073283
148,shimoda,34.6667,138.95,27.84,80,24,4.01,JP,1695073283
149,lebu,-37.6167,-73.65,8.77,64,1,7.85,CL,1695073283
150,minas de marcona,-15.2119,-75.1103,17.85,65,4,5.89,PE,1695073283
151,vangaindrano,-23.35,47.6,20.46,90,31,1.26,MG,1695073283
152,sao desiderio,-12.3633,-44.9733,27.93,23,35,2.32,BR,1695073283
153,dawei,14.0833,98.2,23.96,93,100,0.95,MM,1695073283
154,zagora,30.3484,-5.8365,30.75,28,55,2.44,MA,1695073283
155,melchor de mencos,17.0686,-89.1522,34.0,59,40,0.0,GT,1695073283
156,alegrete,-29.7831,-55.7919,16.26,90,98,6.61,BR,1695073284
157,kharp,66.8014,65.8081,3.82,97,100,3.13,RU,1695073284
158,boende,-0.2167,20.8667,21.55,97,84,0.61,CD,1695073284
159,newman,37.3138,-121.0208,29.02,30,0,0.78,US,1695073284
160,santa luzia,-19.7697,-43.8514,28.5,41,20,4.12,BR,1695073284
161,bom jesus,-9.0744,-44.3586,30.9,23,4,3.26,BR,1695073284
162,clarence-rockland,45.5501,-75.291,21.38,72,61,2.08,CA,1695073284
163,siracusa,37.0881,15.2792,25.73,55,97,2.22,IT,1695073284
164,sao joao da barra,-21.6403,-41.0511,24.05,76,0,8.05,BR,1695073285
165,magadan,59.5667,150.8,6.68,59,100,3.31,RU,1695073285
166,galle,6.0367,80.217,25.33,86,100,0.91,LK,1695073058
167,yuzhno-kurilsk,44.0306,145.8556,16.83,97,100,1.02,RU,1695073285
168,ilulissat,69.2167,-51.1,1.01,64,20,0.0,GL,1695073285
169,codrington,-38.2667,141.9667,13.0,74,53,5.72,AU,1695073285
170,polyarnyy,69.1989,33.4478,5.46,90,100,2.19,RU,1695073285
171,san antonio de pale,-1.4014,5.6325,24.26,85,40,3.65,GQ,1695073285
172,comodoro rivadavia,-45.8667,-67.5,7.92,36,20,6.69,AR,1695073105
173,stanley,54.868,-1.6985,9.18,88,8,5.98,GB,1695073285
174,la ronge,55.1001,-105.2842,24.12,33,0,4.63,CA,1695073286
175,georgetown,5.4112,100.3354,25.01,97,20,1.54,MY,1695073140
176,mandalgovi,45.7625,106.2708,5.03,83,6,4.36,MN,1695073286
177,egilsstadir,65.2653,-14.3948,10.95,76,100,11.32,IS,1695073286
178,tolanaro,-25.0319,46.9987,21.04,88,20,4.12,MG,1695073286
179,fort bragg,35.139,-79.006,27.17,53,0,1.79,US,1695073018
180,kununurra,-15.7667,128.7333,18.99,82,27,2.57,AU,1695073286
181,port sudan,19.6175,37.2164,31.58,60,33,2.65,SD,1695073286
182,nola,40.922,14.5329,27.74,61,100,0.98,IT,1695073286
183,olinda,-8.0089,-34.8553,25.85,83,75,5.66,BR,1695073287
184,jiuquan,39.7432,98.5174,10.75,41,2,1.88,CN,1695073287
185,muroto-misakicho,33.2833,134.15,26.53,80,9,3.0,JP,1695073287
186,poso,-1.3959,120.7524,24.6,79,16,1.78,ID,1695073287
187,ado-odo,6.6,2.9333,24.38,92,52,0.7,NG,1695073287
188,haiku-pauwela,20.9219,-156.3051,30.01,49,40,9.26,US,1695073287
189,boguchany,58.3814,97.4531,12.42,81,97,1.53,RU,1695073287
190,yorosso,12.3536,-4.7761,23.87,81,41,1.91,ML,1695073287
191,tura,25.5198,90.2201,23.43,95,100,1.82,IN,1695073287
192,bayston hill,52.6764,-2.7722,12.4,87,40,2.57,GB,1695073288
193,greymouth,-42.4667,171.2,12.26,85,63,0.37,NZ,1695073288
194,nieuw amsterdam,5.8833,-55.0833,31.01,66,20,3.09,SR,1695073288
195,burutu,5.3509,5.5076,25.23,87,100,1.23,NG,1695073288
196,suklayin,15.7574,121.5503,25.24,90,60,0.99,PH,1695073288
197,saldanha,-33.0117,17.9442,9.03,85,58,2.57,ZA,1695073288
198,iwanai,42.9744,140.5089,20.26,95,100,1.98,JP,1695073288
199,nizhneudinsk,54.9076,99.0276,8.13,85,69,0.85,RU,1695073289
200,acarau,-2.8856,-40.12,26.09,81,23,7.77,BR,1695073289
201,keene,42.9337,-72.2781,18.42,96,100,1.54,US,1695073289
202,new norfolk,-42.7826,147.0587,15.51,56,76,4.37,AU,1695073289
203,nadi,-17.8,177.4167,28.0,69,20,2.06,FJ,1695073173
204,gargalianoi,37.0667,21.6333,23.53,69,0,1.41,GR,1695073289
205,ravar,31.2656,56.8055,25.76,18,5,1.04,IR,1695073289
206,afaahiti,-17.75,-149.2833,25.93,89,97,6.14,PF,1695073289
207,qaqortoq,60.7167,-46.0333,3.73,64,0,2.21,GL,1695073289
208,vadso,70.0744,29.7487,5.49,87,75,1.03,NO,1695073290
209,funafuti,-8.5243,179.1942,31.0,89,75,6.69,TV,1695073043
210,morondava,-20.2833,44.2833,23.63,71,0,4.91,MG,1695073290
211,crane,31.3974,-102.3501,32.55,27,0,4.62,US,1695073290
212,sur,22.5667,59.5289,29.77,70,100,3.96,OM,1695073290
213,kapuskasing,49.4169,-82.4331,15.05,29,20,3.09,CA,1695073262
214,gamba,-2.65,10.0,23.57,86,97,2.78,GA,1695073290
215,homer,59.6425,-151.5483,12.94,50,0,3.09,US,1695073290
216,faya-largeau,17.9257,19.1043,31.24,11,24,5.08,TD,1695073290
217,andrelandia,-21.7397,-44.3092,21.77,37,4,2.41,BR,1695073291
218,berezovo,63.9381,65.0419,9.42,53,100,2.68,RU,1695073291
219,mafeteng,-29.823,27.2374,9.87,24,0,0.95,LS,1695073291
220,bonthe,7.5264,-12.505,24.85,91,100,3.41,SL,1695073291
221,waiuku,-37.25,174.75,17.61,60,4,2.93,NZ,1695073291
222,chefchaouene,35.1688,-5.2636,17.76,77,15,0.2,MA,1695073291
223,kristiansund,63.1115,7.732,17.03,59,0,3.6,NO,1695073291
224,jagannathpur,22.2333,85.65,23.63,90,100,1.79,IN,1695073291
225,eyl,7.9803,49.8164,25.54,77,20,9.24,SO,1695073291
226,el alto,-4.2714,-81.2147,23.81,73,41,8.66,PE,1695073292
227,nuuk,64.1835,-51.7216,4.34,60,20,2.06,GL,1695073292
228,peniche,39.3558,-9.3811,17.94,90,0,3.55,PT,1695073292
229,miles city,46.4083,-105.8406,31.54,12,0,10.29,US,1695073175
230,harper,4.375,-7.7169,25.63,86,100,4.09,LR,1695073292
231,fort st. john,56.2499,-120.8529,15.94,36,40,11.32,CA,1695073292
232,uryupinsk,50.8047,42.0138,11.45,63,18,0.58,RU,1695073292
233,puro,12.4841,123.3827,26.83,85,95,2.1,PH,1695073292
234,kapa'a,22.0752,-159.319,29.18,68,40,6.69,US,1695073178
235,mogocha,53.7333,119.7667,-1.64,89,24,2.03,RU,1695073292
236,atafu village,-8.5421,-172.5159,28.66,76,9,6.96,TK,1695073292
237,uacu cungo,-11.3634,15.1208,19.56,80,57,1.39,AO,1695073293
238,port elizabeth,-33.918,25.5701,14.16,82,75,3.09,ZA,1695073293
239,fort-shevchenko,44.5086,50.263,19.74,65,37,7.05,KZ,1695073293
240,soure,-0.7167,-48.5233,27.36,74,7,5.52,BR,1695073293
241,kodiak,57.79,-152.4072,11.73,58,0,11.32,US,1695073293
242,walvis bay,-22.9575,14.5053,13.94,82,37,3.09,NA,1695073293
243,puerto baquerizo moreno,-0.9,-89.6,26.55,74,75,5.14,EC,1695073293
244,ca mau,9.1769,105.15,25.22,89,100,1.42,VN,1695073293
245,lompoc,34.6391,-120.4579,28.72,72,75,6.17,US,1695073293
246,mount isa,-20.7333,139.5,11.87,66,40,2.06,AU,1695073293
247,hithadhoo,-0.6,73.0833,28.04,76,100,6.52,MV,1695073294
248,puerto armuelles,8.2833,-82.8667,27.27,72,100,0.45,PA,1695073097
249,brookings,44.3114,-96.7984,28.19,44,0,3.09,US,1695073204
250,dongola,19.1667,30.4833,32.06,16,62,5.05,SD,1695073294
251,harstad,68.799,16.5293,8.78,97,100,3.58,NO,1695073294
252,holualoa,19.6228,-155.9522,28.21,76,40,5.14,US,1695073294
253,ovalle,-30.5983,-71.2003,21.06,36,100,2.21,CL,1695073057
254,novyy urgal,51.0736,132.5642,11.17,95,100,1.66,RU,1695073294
255,kashgar,39.4547,75.9797,20.56,40,20,0.0,CN,1695073294
256,bang saphan,11.2126,99.5117,24.73,88,100,1.76,TH,1695073295
257,yemetsk,63.4721,41.7941,3.6,94,58,2.39,RU,1695073295
258,luderitz,-26.6481,15.1594,14.22,75,0,6.31,NA,1695073295
259,sept-iles,50.2001,-66.3821,15.03,85,100,3.09,CA,1695073295
260,ust-nera,64.5667,143.2,0.97,87,84,2.63,RU,1695073295
261,constantia,44.1833,28.65,16.38,63,0,2.08,RO,1695073295
262,mantua,45.1667,10.7833,21.58,86,60,1.44,IT,1695073296
263,whitecourt,54.1502,-115.6855,15.58,38,40,5.66,CA,1695073296
264,pervomayskiy,53.2485,40.2871,16.72,58,100,0.47,RU,1695073296
265,vilyuchinsk,52.9306,158.4028,4.15,60,12,1.21,RU,1695073296
266,mana,5.6592,-53.7767,25.42,90,53,2.75,GF,1695073296
267,dauphin,51.1494,-100.0502,26.08,44,0,4.63,CA,1695073297
268,nago,26.5881,127.9761,28.47,83,7,2.24,JP,1695073297
269,slave lake,55.2834,-114.769,15.99,44,75,10.29,CA,1695073297
270,nemuro,43.3236,145.575,16.49,97,100,2.24,JP,1695073297
271,barra do garcas,-15.89,-52.2567,34.32,33,0,1.54,BR,1695073108
272,vershino-darasunskiy,52.35,115.5167,1.9,88,80,2.37,RU,1695073298
273,barghat,22.0333,79.7167,22.42,88,58,1.6,IN,1695073298
274,hailar,49.2,119.7,5.46,89,8,2.71,CN,1695073298
275,jayapura,-2.5333,140.7,25.66,90,100,2.23,ID,1695073298
276,maintirano,-18.0667,44.0167,25.28,80,79,2.48,MG,1695073298
277,dolores,-36.3132,-57.6792,8.87,65,22,4.58,AR,1695073298
278,vilyuysk,63.7553,121.6247,-3.27,96,26,2.04,RU,1695073298
279,novodvinsk,64.4165,40.8122,3.0,94,21,2.33,RU,1695073299
280,dampit,-8.2116,112.7493,18.61,96,36,1.74,ID,1695073299
281,callao,-12.0667,-77.15,19.16,82,100,6.69,PE,1695073299
282,chui,-33.6971,-53.4616,12.63,91,100,5.8,UY,1695073299
283,aytos,42.7,27.25,17.68,81,2,2.32,BG,1695073299
284,wellington,-41.2866,174.7756,15.59,77,40,11.32,NZ,1695073037
285,ola,59.5833,151.2833,6.97,59,100,2.45,RU,1695073299
286,acajutla,13.5928,-89.8275,29.52,74,88,2.63,SV,1695073299
287,labuan,5.2767,115.2417,24.2,94,20,0.0,MY,1695073299
288,south boston,42.3334,-71.0495,18.75,94,100,2.06,US,1695073300
289,bamboo flat,11.7,92.7167,24.05,94,75,1.03,IN,1695073300
290,tabou,4.423,-7.3528,25.36,88,100,3.9,CI,1695073300
291,yaren,-0.5472,166.916,28.78,75,80,4.34,NR,1695073300
292,leh,34.1667,77.5833,12.43,66,36,2.87,IN,1695073300
293,kish,26.5578,54.0194,31.15,79,83,2.06,IR,1695073300
294,hozat,39.1083,39.2213,14.29,32,91,2.46,TR,1695073300
295,antofagasta,-23.65,-70.4,17.6,74,27,3.88,CL,1695073300
296,robit,12.0167,39.6333,20.51,65,37,1.31,ET,1695073300
297,boa vista,2.8197,-60.6733,34.99,36,0,6.17,BR,1695073301
298,usinsk,65.9939,57.5281,8.29,95,100,5.9,RU,1695073301
299,pont rouge,48.8833,-72.0825,15.16,89,100,0.61,CA,1695073301
300,tanabe,33.7333,135.3667,26.19,84,78,1.09,JP,1695073057
301,horki,54.2861,30.9842,14.58,68,33,3.46,BY,1695073301
302,east london,-33.0153,27.9116,15.36,75,26,2.81,ZA,1695073301
303,oelwein,42.6733,-91.9135,27.44,41,32,2.24,US,1695073301
304,magnitka,55.3475,59.6961,9.99,87,93,1.81,RU,1695073301
305,palikir - national government center,6.9248,158.1611,25.41,94,100,1.03,FM,1695073301
306,saint-philippe,-21.3585,55.7679,21.77,82,37,4.88,RE,1695073301
307,chela,34.069,104.4619,13.91,96,100,0.83,CN,1695073301
308,riyadh,24.6877,46.7219,32.08,17,77,3.39,SA,1695073197
309,fuyu,45.1833,124.8167,12.79,88,88,6.62,CN,1695073302
310,warmbad,-28.45,18.7333,17.4,17,0,0.49,NA,1695073302
311,lazaro cardenas,17.9583,-102.2,30.3,65,1,4.37,MX,1695073302
312,kolonia town,6.964,158.206,26.0,94,100,1.03,FM,1695073302
313,kontcha,7.9667,12.2333,21.19,95,65,0.57,CM,1695073302
314,greencastle,39.6445,-86.8647,24.56,49,75,3.09,US,1695072765
315,el bauga,18.262,33.9081,31.42,38,73,8.78,SD,1695073302
316,el amria,35.5244,-1.0158,23.02,69,21,0.87,DZ,1695073302
317,ta`u,-14.2336,-169.5144,26.22,80,97,11.99,AS,1695073302
318,abilene,32.4487,-99.7331,33.38,31,0,2.06,US,1695073221
319,tralee,52.2704,-9.7026,13.3,86,100,4.41,IE,1695072987
320,shindand,33.3029,62.1474,19.32,24,0,2.54,AF,1695073303
321,bacobampo,26.9833,-109.65,37.34,43,0,6.44,MX,1695073303
322,kalaleh,37.3807,55.4916,21.78,73,75,4.12,IR,1695073303
323,turpan,42.9333,89.1667,22.71,25,57,1.0,CN,1695073303
324,sangamner,19.5667,74.2167,22.44,88,13,3.29,IN,1695073303
325,petropavlovsk-kamchatsky,53.0452,158.6483,3.33,81,0,5.0,RU,1695073303
326,tamandare,-8.7597,-35.1047,23.91,87,33,4.4,BR,1695073303
327,vinton,37.281,-79.897,24.54,52,20,7.72,US,1695073303
328,garoua boulai,5.8833,14.55,18.03,98,100,0.57,CM,1695073304
329,waingapu,-9.6567,120.2641,22.78,84,15,3.83,ID,1695073304
330,toliara,-23.35,43.6667,22.3,73,0,5.57,MG,1695073304
331,linton,39.0348,-87.1658,25.82,27,0,3.01,US,1695073304
332,ust'-ilimsk,58.0006,102.6619,7.78,95,92,2.04,RU,1695073304
333,manavalakurichi,8.1333,77.3,24.92,91,100,4.25,IN,1695073304
334,chenzhou,25.8,113.0333,24.1,92,30,2.1,CN,1695073304
335,kourou,5.1552,-52.6478,30.03,88,57,3.5,GF,1695073304
336,kara-balta,42.8142,73.8481,15.61,60,30,0.95,KG,1695073304
337,alice springs,-23.7,133.8833,18.75,22,58,5.14,AU,1695073304
338,tomatlan,19.9333,-105.25,31.34,60,10,3.26,MX,1695073304
339,prince rupert,54.3161,-130.3201,13.05,80,100,5.14,CA,1695073305
340,caidian,30.5833,114.0333,29.07,86,100,2.43,CN,1695073305
341,sitka,57.0531,-135.33,12.94,71,100,4.63,US,1695073305
342,manturovo,58.3353,44.7619,5.59,88,22,2.09,RU,1695073305
343,thompson,55.7435,-97.8558,23.09,49,0,3.6,CA,1695073198
344,lokomotivnyy,53.0118,60.5684,13.0,76,91,3.13,RU,1695073305
345,porto murtinho,-21.6989,-57.8825,34.4,28,68,3.73,BR,1695073305
346,otjimbingwe,-22.35,16.1333,18.41,39,2,1.18,NA,1695073305
347,bayanaul,50.7889,75.6956,12.18,65,92,1.67,KZ,1695073305
348,kayangel,8.0823,134.7173,27.55,79,94,1.9,PW,1695073306
349,mundra,22.85,69.7333,27.64,87,100,7.93,IN,1695073306
350,mwene-ditu,-7.0,23.45,21.12,79,91,1.75,CD,1695073306
351,laurel,39.0993,-76.8483,25.85,55,40,3.6,US,1695073175
352,vetlanda,57.4289,15.0776,16.7,94,100,3.43,SE,1695073306
353,salalah,17.0151,54.0924,27.05,94,75,0.51,OM,1695073306
354,bodaybo,57.8506,114.1933,-0.13,86,33,0.55,RU,1695073306
355,puerto ayacucho,5.6639,-67.6236,29.67,73,83,0.99,VE,1695073306
356,mermoz boabab,14.7065,-17.4758,28.31,89,40,0.0,SN,1695073306
357,nyala,12.05,24.8833,24.38,66,96,4.03,SD,1695073306
358,djenne,13.9061,-4.5533,28.36,59,48,3.8,ML,1695073307
359,la passe,45.5549,-0.8967,19.43,79,72,4.84,FR,1695073307
360,jinji,23.2281,110.8261,24.22,97,46,0.77,CN,1695073307
361,vicente guerrero,19.1194,-98.1708,17.66,72,88,0.77,MX,1695073307
362,horta,38.5333,-28.6333,21.68,75,28,2.68,PT,1695073220
363,taulaga,-11.0553,-171.0883,28.31,77,13,9.33,AS,1695073307
364,san patricio,28.017,-97.5169,35.4,37,14,7.05,US,1695073307
365,likiep,9.8251,169.3107,27.28,79,99,3.56,MH,1695073307
366,sisimiut,66.9395,-53.6735,2.83,64,48,2.06,GL,1695073307
367,hardheim,49.6119,9.4719,16.7,86,98,3.27,DE,1695073307
368,talara,-4.5772,-81.2719,25.42,69,0,7.17,PE,1695073308
369,portage,41.1667,-81.1998,20.02,61,40,4.63,US,1695073308
370,an nuhud,12.7,28.4333,27.24,64,99,3.38,SD,1695073308
371,enriquillo,17.9,-71.2333,30.82,74,45,4.06,DO,1695073308
372,mmabatho,-25.85,25.6333,17.98,42,0,4.12,ZA,1695073308
373,kurchatov,51.6601,35.6521,12.23,69,9,2.39,RU,1695073308
374,noshiro,40.2039,140.0242,21.99,96,100,3.22,JP,1695073308
375,kondrovo,54.8064,35.9278,11.27,93,61,1.7,RU,1695073308
376,iskateley,67.6803,53.1512,6.55,96,100,6.81,RU,1695073308
377,richland center,43.3347,-90.3868,26.85,38,6,3.77,US,1695073145
378,luganville,-15.5333,167.1667,26.42,80,77,4.65,VU,1695072900
379,mount gambier,-37.8333,140.7667,12.69,78,26,4.47,AU,1695073309
380,duong dong,10.2167,103.9667,25.0,88,20,0.51,VN,1695073309
381,beeskow,52.1667,14.25,19.45,89,100,4.27,DE,1695073309
382,salinopolis,-0.6136,-47.3561,26.85,80,15,6.33,BR,1695073309
383,port macquarie,-31.4333,152.9167,19.07,38,0,1.81,AU,1695072647
384,tiflet,33.8947,-6.3065,17.33,75,30,1.63,MA,1695073309
385,sooke,48.3746,-123.7276,20.13,65,50,12.86,CA,1695073309
386,volosovo,59.4333,29.4833,5.71,97,80,2.37,RU,1695073309
387,bel ombre,-4.6167,55.4167,26.91,83,20,3.6,SC,1695073309
388,tual,-5.6667,132.75,24.82,81,31,7.75,ID,1695073310
389,bayanhongor,46.7167,100.1167,-0.98,85,32,1.27,MN,1695073310
390,kirensk,57.7853,108.1119,-0.27,89,49,0.68,RU,1695073310
391,buka,40.8108,69.1986,17.17,32,51,1.03,UZ,1695073310
392,jinka,5.65,36.65,19.36,80,100,1.41,ET,1695073310
393,lae,-6.7221,146.9847,21.37,76,100,1.46,PG,1695073310
394,kabul,34.5,69.4167,17.99,82,0,1.14,AF,1695073310
395,acatlan de juarez,20.4167,-103.5833,27.03,54,39,0.42,MX,1695073310
396,laojunmiao,39.8333,97.7333,9.63,38,1,2.44,CN,1695073310
397,ha'il,27.5219,41.6907,31.01,19,20,2.06,SA,1695073310
398,peace river,56.2501,-117.286,16.17,41,75,4.63,CA,1695073255
399,andovoranto,-18.95,49.1,19.53,90,19,1.86,MG,1695073311
400,dryden,49.7833,-92.7503,20.16,56,0,5.66,CA,1695073311
401,hirara,24.8,125.2833,26.15,94,20,2.57,JP,1695073311
402,agat village,13.3886,144.6585,28.06,91,40,3.09,GU,1695073311
403,al bawiti,28.3492,28.8659,25.67,38,0,2.04,EG,1695073311
404,nouadhibou,20.931,-17.0347,25.99,61,100,7.2,MR,1695073311
405,cidreira,-30.1811,-50.2056,18.73,96,92,1.83,BR,1695073311
406,canutama,-6.5339,-64.3831,30.19,52,82,1.17,BR,1695073311
407,aleg,17.0481,-13.9209,33.72,44,86,3.76,MR,1695073311
408,sibalom,10.79,122.0178,25.05,83,65,1.43,PH,1695073312
409,dudinka,69.4058,86.1778,2.57,97,100,7.26,RU,1695073312
410,simanggang,1.2472,111.4528,22.99,100,100,0.51,MY,1695073312
411,najran,17.4924,44.1277,27.36,16,88,2.18,SA,1695073312
412,astrakhan,46.3497,48.0408,15.93,67,0,3.13,RU,1695073172
413,soio,-6.1349,12.3689,23.61,85,77,1.84,AO,1695073312
414,kamina,-8.7386,24.9906,19.96,77,58,2.27,CD,1695073312
415,zungeru,9.8128,6.1558,23.22,94,28,0.95,NG,1695073312
416,montes claros,-16.735,-43.8617,30.88,23,0,5.14,BR,1695073312
417,kulachi,31.9286,70.4592,31.14,51,16,2.55,PK,1695073312
418,palmer,42.1584,-72.3287,19.34,83,100,2.57,US,1695073313
419,bamnet narong,15.4992,101.6897,23.76,95,100,2.47,TH,1695073313
420,center,31.5107,-96.4247,34.22,27,0,3.6,US,1695073313
421,marica,-22.9194,-42.8186,27.97,75,0,4.91,BR,1695073313
422,acapulco de juarez,16.8634,-99.8901,31.9,62,20,5.14,MX,1695072590
423,huancavelica,-12.7667,-74.9833,7.27,69,94,3.47,PE,1695073313
424,cockburn town,21.4612,-71.1419,30.98,62,40,4.12,TC,1695073264
425,ramchandrapur,22.8964,88.4753,26.94,91,100,2.74,IN,1695073313
426,kintampo,8.0563,-1.7306,22.63,97,90,1.64,GH,1695073313
427,miquelon,47.0975,-56.3814,17.0,88,96,5.42,PM,1695073313
428,ebon,4.582,168.6964,28.33,69,99,2.31,MH,1695073314
429,fuling,29.7022,107.3919,24.57,88,52,1.05,CN,1695073206
430,centerville,39.6284,-84.1594,23.65,49,0,4.12,US,1695073229
431,lorengau,-2.0226,147.2712,27.93,76,100,6.06,PG,1695073314
432,kogalym,62.2654,74.4791,5.39,78,94,5.08,RU,1695073314
433,papao,-17.75,-149.55,26.82,91,95,6.67,PF,1695073314
434,barra de santo antonio,-9.4047,-35.5072,25.6,86,97,4.79,BR,1695073314
435,cabo san lucas,22.8909,-109.9124,36.61,62,0,5.66,MX,1695073314
436,lensk,60.7253,114.9278,-2.33,89,36,1.2,RU,1695073314
437,novoagansk,61.9449,76.6625,6.18,84,93,2.91,RU,1695073314
438,kalmunai,7.4167,81.8167,25.67,80,100,3.64,LK,1695073314
439,saskatoon,52.1168,-106.6345,24.99,25,75,4.12,CA,1695073260
440,kailua-kona,19.6406,-155.9956,30.28,74,40,5.14,US,1695073049
441,tarawa,1.419,172.984,31.05,70,20,2.57,KI,1695073315
442,priargunsk,50.3691,119.1012,7.85,82,90,4.65,RU,1695073315
443,porto cristo,39.5395,3.333,22.96,59,100,1.69,ES,1695073315
444,bankim,6.083,11.4905,20.44,94,100,0.57,CM,1695073315
445,rabigh,22.7986,39.0349,30.4,68,4,3.6,SA,1695073315
446,ales,44.1333,4.0833,19.6,69,64,2.35,FR,1695073315
447,shohimardon,39.9839,71.8028,12.43,53,0,0.53,UZ,1695073315
448,luena,-11.7833,19.9167,21.1,56,0,2.06,AO,1695073315
449,ko lanta,7.5336,99.0865,26.87,82,100,2.94,TH,1695073316
450,isla mujeres,21.2311,-86.731,31.03,69,8,3.98,MX,1695073316
451,geraldton,-28.7667,114.6,14.23,77,100,2.57,AU,1695073316
452,yilan,24.757,121.753,28.34,94,18,1.01,TW,1695073316
453,muisne,0.6,-80.0333,25.89,80,78,4.18,EC,1695073316
454,svobodnyy,51.4,128.1333,4.27,81,46,7.74,RU,1695073316
455,tashtyp,52.7939,89.8983,7.99,93,95,0.89,RU,1695073316
456,bandarbeyla,9.4942,50.8122,27.0,67,91,10.14,SO,1695073316
457,mooloolaba,-26.6833,153.1167,19.47,76,46,0.45,AU,1695073316
458,dunedin,-45.8742,170.5036,13.93,57,32,2.24,NZ,1695073317
459,howard springs,-12.497,131.047,23.79,78,36,2.7,AU,1695073317
460,tazovsky,67.4667,78.7,2.0,85,70,3.64,RU,1695073317
461,nar'yan-mar,67.6713,53.087,6.6,96,100,7.01,RU,1695073317
462,nanakuli,21.3906,-158.1547,30.97,58,20,5.14,US,1695073317
463,klyuchi,52.2667,79.1667,13.58,86,100,0.39,RU,1695073317
464,argo,37.6333,22.7333,22.1,63,0,2.31,GR,1695073317
465,east ballina,-28.8667,153.5833,17.11,63,2,4.22,AU,1695073317
466,i-n-salah,27.1935,2.4607,33.28,9,5,6.95,DZ,1695073317
467,kill devil hills,36.0307,-75.676,23.88,68,100,0.0,US,1695073318
468,maloye ganyushkino,46.6,49.2667,18.55,51,17,4.05,KZ,1695073318
469,flying fish cove,-10.4217,105.6791,23.82,83,40,5.66,CX,1695073318
470,suomussalmi,64.8869,28.9078,3.72,85,55,3.01,FI,1695073318
471,concepcion del oro,24.6333,-101.4167,22.42,43,92,2.87,MX,1695073318
472,robore,-18.3333,-59.75,35.05,49,20,7.72,BO,1695073318
473,campobasso,41.6333,14.5833,24.97,50,97,1.47,IT,1695073318
474,constitucion,-35.3333,-72.4167,11.55,66,74,6.0,CL,1695073318
475,port isabel,26.0734,-97.2086,35.02,63,0,6.69,US,1695073318
476,tangalle,6.024,80.7911,24.09,87,100,3.2,LK,1695073318
477,ciudad victoria,23.7333,-99.1333,33.49,29,40,2.57,MX,1695073238
478,araripina,-7.5761,-40.4983,25.65,37,42,2.13,BR,1695073319
479,kashima-shi,35.9654,140.6447,24.94,76,4,4.93,JP,1695073319
480,itaituba,-4.2761,-55.9836,36.09,46,40,0.71,BR,1695073076
481,manta,-0.95,-80.7333,26.88,74,100,4.63,EC,1695073319
482,souillac,-20.5167,57.5167,22.21,88,40,2.57,MU,1695073319
483,nantucket,41.2835,-70.0995,20.01,94,100,7.2,US,1695073319
484,maumere,-8.6199,122.2111,23.54,78,9,0.6,ID,1695073319
485,kem',64.9555,34.5793,5.8,77,89,4.34,RU,1695073319
486,ulanhot,46.0833,122.0833,12.12,80,99,3.03,CN,1695073319
487,vallenar,-28.5708,-70.7581,23.37,33,17,3.22,CL,1695073205
488,altai,46.3722,96.2583,3.19,73,3,1.11,MN,1695073320
489,margate,51.3813,1.3862,13.82,69,31,2.68,GB,1695073320
490,brisas de zicatela,15.8369,-97.0419,32.29,48,40,4.12,MX,1695073320
491,kosh-agach,50.0,88.6667,3.41,76,37,0.22,RU,1695073320
492,phitsanulok,16.9167,100.5,22.32,98,100,1.01,TH,1695073174
493,flin flon,54.7682,-101.865,20.91,60,75,4.12,CA,1695073320
494,chantonnay,46.687,-1.0502,16.45,87,97,2.74,FR,1695073320
495,laguna,38.421,-121.4238,29.62,50,0,2.06,US,1695073320
496,arawa,-6.2132,155.5367,27.46,75,100,0.71,PG,1695073320
497,chibougamau,49.9168,-74.3659,13.79,58,75,1.03,CA,1695073320
498,tsengel,49.4783,100.8894,4.68,80,11,0.16,MN,1695073321
499,yanykurgan,43.915,67.2481,19.32,31,100,1.42,KZ,1695073321
500,belyy yar,53.6039,91.3903,6.94,100,66,0.0,RU,1695073321
501,tashtagol,52.7657,87.8894,8.88,95,99,0.98,RU,1695073321
502,bengkulu,-3.8004,102.2655,22.93,93,78,3.23,ID,1695073321
503,oamaru,-45.0784,170.9801,11.59,58,35,2.16,NZ,1695073321
504,dapa,9.7594,126.0531,27.6,77,94,1.89,PH,1695073321
505,galesong,-5.3166,119.3661,23.01,72,4,2.22,ID,1695073321
506,west sayville,40.7279,-73.0976,21.12,93,100,3.09,US,1695073321
507,balnearia,-31.0088,-62.6673,19.85,35,1,4.87,AR,1695073322
508,santarem,-2.4431,-54.7083,32.07,62,0,4.63,BR,1695073322
509,cedeira,43.6797,-8.0209,16.88,79,86,3.03,ES,1695073322
510,crystal city,28.6775,-99.8281,34.06,31,40,3.6,US,1695073322
511,ishigaki,24.3448,124.1572,27.07,94,20,3.09,JP,1695073322
512,tosontsengel,48.7567,98.2839,2.37,79,13,0.5,MN,1695073322
513,traverse city,44.7631,-85.6206,17.11,67,100,4.12,US,1695073245
514,seybaplaya,19.65,-90.6667,30.7,63,23,4.72,MX,1695073322
515,drama,41.1544,24.1394,22.04,60,1,1.47,GR,1695073322
516,grajau,-5.8194,-46.1386,32.2,27,51,1.4,BR,1695073323
517,cotusca,48.1333,26.85,16.73,44,0,6.48,RO,1695073323
518,hun,29.1268,15.9477,25.21,52,1,3.9,LY,1695073323
519,altay,47.8667,88.1167,9.39,64,10,2.16,CN,1695073323
520,north battleford,52.7834,-108.2847,25.78,22,0,1.54,CA,1695073039
521,al jawf,29.5,38.75,25.09,21,0,2.31,SA,1695073323
522,ryotsu-minato,38.0833,138.4333,25.54,85,100,3.06,JP,1695073323
523,grivita,44.7333,27.2833,15.91,74,0,2.98,RO,1695073323
524,faqus,30.7301,31.8018,21.57,87,0,2.56,EG,1695073323
525,berezovyy,51.6667,135.7,7.76,93,100,1.98,RU,1695073323
526,gamay,12.3854,125.2979,25.91,87,78,1.46,PH,1695073324
527,antsiranana,-12.2787,49.2917,22.85,75,32,6.83,MG,1695073324
528,ivdel',60.6911,60.4206,11.85,70,100,2.84,RU,1695073324
529,nittendorf,49.0253,11.9611,15.69,93,100,0.45,DE,1695073324
530,mili,6.0815,171.735,26.89,82,100,3.14,MH,1695073324
531,yatagan,37.3403,28.1428,23.14,42,0,1.69,TR,1695073324
532,boromo,11.75,-2.9333,25.86,77,15,0.9,BF,1695073324
533,nizhneangarsk,55.7833,109.55,6.11,60,63,1.71,RU,1695073324
534,delavan,42.6331,-88.6437,22.73,36,14,0.52,US,1695073325
535,port blair,11.6667,92.75,24.02,94,75,1.03,IN,1695073325
536,hassi messaoud,31.6804,6.0729,29.92,13,0,2.06,DZ,1695073325
537,rocha,-34.4833,-54.3333,11.32,83,88,3.98,UY,1695073325
538,weno,7.4515,151.8468,26.97,100,100,0.0,FM,1695073325
539,ghormach,35.7306,63.7826,18.46,28,0,2.5,AF,1695073325
540,neiafu,-18.65,-173.9833,25.38,65,75,6.17,TO,1695073325
541,ceelbuur,4.685,46.6176,24.59,73,73,8.21,SO,1695073325
542,lhasa,29.65,91.1,9.26,62,39,2.22,CN,1695073325
543,banjarmasin,-3.3244,114.591,24.08,89,13,0.84,ID,1695073325
544,chifeng,42.2683,118.9636,11.76,63,6,2.35,CN,1695073326
545,saint-pierre,-21.3393,55.4781,21.82,73,100,1.03,RE,1695073326
546,nikolayevsk-on-amure,53.1406,140.73,8.17,97,100,2.33,RU,1695073326
547,cootamundra,-34.65,148.0333,17.75,41,30,4.62,AU,1695073326
548,kapoeta,4.7717,33.5903,23.49,82,75,1.48,SS,1695073326
549,los chavez,34.727,-106.7384,28.47,44,26,1.34,US,1695073326
550,san juan de miraflores,-12.1629,-76.9635,18.29,85,72,3.94,PE,1695073326
551,la rioja,42.25,-2.5,11.88,76,51,0.92,ES,1695073326
552,nampa,43.5407,-116.5635,30.47,26,0,1.34,US,1695073122
553,njombe,-9.3333,34.7667,12.98,76,7,2.61,TZ,1695073327
554,enewetak,11.3474,162.3373,27.09,85,100,8.67,MH,1695073327
555,colonia,50.9333,6.95,18.31,84,0,3.6,DE,1695072738
556,santa croce camerina,36.8289,14.5268,20.82,45,100,1.54,IT,1695073327
557,bontang,0.1333,117.5,24.33,91,92,2.91,ID,1695073327
558,amahai,-3.3333,128.9167,24.35,85,83,2.07,ID,1695073327
559,pader palwo,2.8006,33.135,19.59,93,89,1.45,UG,1695073327
560,ak'ordat,15.5486,37.8867,28.52,52,95,4.8,ER,1695073327
561,maracacume,-2.0428,-45.9592,27.72,64,56,2.75,BR,1695073327
562,puerto santa,-8.9906,-78.6456,20.31,82,59,4.72,PE,1695073327
563,tambura,5.6,27.4667,20.69,97,100,1.58,SS,1695073328
564,murwara,23.85,80.4,23.78,91,46,1.47,IN,1695073328
565,la mira,18.035,-102.3266,30.58,64,3,4.22,MX,1695073328
566,coronel suarez,-37.4547,-61.9334,9.77,48,32,3.42,AR,1695073328
567,filey,54.21,-0.2892,12.1,85,8,3.13,GB,1695073328
568,keningau,5.3378,116.1602,22.01,99,95,0.13,MY,1695073328
569,nephi,39.7102,-111.8363,28.08,16,91,7.06,US,1695073328
570,miri,4.4148,114.0089,23.08,100,40,1.54,MY,1695073328
571,ongwediva,-17.7833,15.7667,25.98,13,34,5.49,NA,1695073328
572,belmonte,-15.8631,-38.8828,23.51,82,44,2.85,BR,1695073328
573,thabazimbi,-24.5917,27.4116,17.57,59,0,3.48,ZA,1695073329
574,keszthely,46.7681,17.2432,22.94,68,0,4.63,HU,1695073329
575,elko,41.0002,-115.5012,28.42,21,89,2.68,US,1695073329
